[
    {
        "Name": "1,2,3 FAST FOOD",
        "Street": "Cimburkova 4",
        "City": "Brno",
        "Postcode": 61600,
        "category": "restaurant",
        "Verify SMS payment": false,
        "eVoucher option": false,
        "gastro": true,
        "flexi": false,
        "full_addr": "Cimburkova 4, Brno",
        "lat": 49.2170681,
        "lon": 16.6084079
    },
    {
        "Name": "100CHUT\u00cd",
        "Street": "Starobrn\u011bnsk\u00e1 334/3",
        "City": "Brno",
        "Postcode": 60200,
        "category": "restaurant",
        "Verify SMS payment": false,
        "eVoucher option": false,
        "gastro": true,
        "flexi": false,
        "full_addr": "Starobrn\u011bnsk\u00e1 334/3, Brno",
        "lat": 49.1924741,
        "lon": 16.6074675
    },
    {
        "Name": "203007 Restaurace KFC Brno Olympia DT",
        "Street": "U d\u00e1lnice 750",
        "City": "Mod\u0159ice",
        "Postcode": 66442,
        "category": "fast_food",
        "Verify SMS payment": false,
        "eVoucher option": false,
        "gastro": true,
        "flexi": false,
        "full_addr": "U d\u00e1lnice 750, Mod\u0159ice",
        "lat": 49.13466235,
        "lon": 16.633070347
    },
    {
        "Name": "203022 Restaurace KFC - Brno Futurum",
        "Street": "V\u00edde\u0148sk\u00e1 100",
        "City": "Brno",
        "Postcode": 61900,
        "category": "fast_food",
        "Verify SMS payment": false,
        "eVoucher option": false,
        "gastro": true,
        "flexi": false,
        "full_addr": "V\u00edde\u0148sk\u00e1 100, Brno",
        "lat": 49.1561217,
        "lon": 16.5974991
    },
    {
        "Name": "203033 Restaurace KFC Brno Va\u0148kova",
        "Street": "Ve Va\u0148kovce 462/1",
        "City": "Brno",
        "Postcode": 60200,
        "category": "fast_food",
        "Verify SMS payment": false,
        "eVoucher option": false,
        "gastro": true,
        "flexi": false,
        "full_addr": "Ve Va\u0148kovce 462/1, Brno",
        "lat": 49.1888279,
        "lon": 16.6139449
    },
    {
        "Name": "203037 Restaurace KFC - Brno Olympia",
        "Street": "U D\u00e1lnice 777",
        "City": "Mod\u0159ice",
        "Postcode": 66442,
        "category": "fast_food",
        "Verify SMS payment": false,
        "eVoucher option": false,
        "gastro": true,
        "flexi": false,
        "full_addr": "U D\u00e1lnice 777, Mod\u0159ice",
        "lat": 49.1394586,
        "lon": 16.6315115
    },
    {
        "Name": "203038 Restaurace KFC - Brno Masarykova",
        "Street": "Masarykova 37",
        "City": "Brno",
        "Postcode": 60200,
        "category": "fast_food",
        "Verify SMS payment": false,
        "eVoucher option": false,
        "gastro": true,
        "flexi": false,
        "full_addr": "Masarykova 37, Brno",
        "lat": 49.191374,
        "lon": 16.611217
    },
    {
        "Name": "203040 Restaurace KFC - Znojmo Freeport Hat\u011b",
        "Street": "Chvalovice - Hat\u011b 196",
        "City": "Znojmo",
        "Postcode": 66902,
        "category": "fast_food",
        "Verify SMS payment": false,
        "eVoucher option": false,
        "gastro": true,
        "flexi": false,
        "full_addr": "Chvalovice - Hat\u011b 196, Znojmo",
        "lat": 48.7632307,
        "lon": 16.0604403
    },
    {
        "Name": "203088 Restaurace KFC - Brno N\u00e1m. Svobody",
        "Street": "Ra\u0161\u00ednova 2",
        "City": "Brno",
        "Postcode": 60200,
        "category": "fast_food",
        "Verify SMS payment": false,
        "eVoucher option": false,
        "gastro": true,
        "flexi": false,
        "full_addr": "Ra\u0161\u00ednova 2, Brno",
        "lat": 49.195777,
        "lon": 16.6081937
    },
    {
        "Name": "203135 Restaurace KFC",
        "Street": "Netroufalky 770/16",
        "City": "Brno",
        "Postcode": 62500,
        "category": "fast_food",
        "Verify SMS payment": false,
        "eVoucher option": false,
        "gastro": true,
        "flexi": false,
        "full_addr": "Netroufalky 770/16, Brno",
        "lat": 49.1761477,
        "lon": 16.5653471
    },
    {
        "Name": "203163 Restaurace KFC - Brno Bystrc",
        "Street": "n\u00e1m\u011bst\u00ed 28. dubna 1069/2",
        "City": "Brno",
        "Postcode": 63500,
        "category": "fast_food",
        "Verify SMS payment": false,
        "eVoucher option": false,
        "gastro": true,
        "flexi": false,
        "full_addr": "n\u00e1m\u011bst\u00ed 28. dubna 1069/2, Brno",
        "lat": 49.225454,
        "lon": 16.5305405
    },
    {
        "Name": "204015 Pizza Hut - Brno Va\u0148kovka",
        "Street": "Ve Va\u0148kovce 462/1",
        "City": "Brno",
        "Postcode": 60200,
        "category": "fast_food",
        "Verify SMS payment": false,
        "eVoucher option": false,
        "gastro": true,
        "flexi": false,
        "full_addr": "Ve Va\u0148kovce 462/1, Brno",
        "lat": 49.1888279,
        "lon": 16.6139449
    },
    {
        "Name": "207015 Burger King Brno Olympia",
        "Street": "U D\u00e1lnice 777",
        "City": "Mod\u0159ice",
        "Postcode": 66442,
        "category": "fast_food",
        "Verify SMS payment": false,
        "eVoucher option": false,
        "gastro": true,
        "flexi": false,
        "full_addr": "U D\u00e1lnice 777, Mod\u0159ice",
        "lat": 49.1394586,
        "lon": 16.6315115
    },
    {
        "Name": "207036 Burger King - Hat\u011b Freeport",
        "Street": "Hat\u011b 196",
        "City": "Chvalovice",
        "Postcode": 66902,
        "category": "fast_food",
        "Verify SMS payment": false,
        "eVoucher option": false,
        "gastro": true,
        "flexi": false,
        "full_addr": "Hat\u011b 196, Chvalovice",
        "lat": 48.7626251,
        "lon": 16.0621249
    },
    {
        "Name": "207041 Burger King Brno Campus",
        "Street": "Netroufalky 770/16",
        "City": "Brno",
        "Postcode": 62500,
        "category": "fast_food",
        "Verify SMS payment": false,
        "eVoucher option": false,
        "gastro": true,
        "flexi": false,
        "full_addr": "Netroufalky 770/16, Brno",
        "lat": 49.1761477,
        "lon": 16.5653471
    },
    {
        "Name": "208040 Starbucks Coffee Brno Olympia",
        "Street": "U d\u00e1lnice 777",
        "City": "Mod\u0159ice",
        "Postcode": 66442,
        "category": "fast_food",
        "Verify SMS payment": false,
        "eVoucher option": false,
        "gastro": true,
        "flexi": false,
        "full_addr": "U d\u00e1lnice 777, Mod\u0159ice",
        "lat": 49.1394586,
        "lon": 16.6315115
    },
    {
        "Name": "208043 Starbucks Coffee Brno Va\u0148kova",
        "Street": "Ve Va\u0148kovce 462/1",
        "City": "Brno",
        "Postcode": 60200,
        "category": "fast_food",
        "Verify SMS payment": false,
        "eVoucher option": false,
        "gastro": true,
        "flexi": false,
        "full_addr": "Ve Va\u0148kovce 462/1, Brno",
        "lat": 49.1888279,
        "lon": 16.6139449
    },
    {
        "Name": "208049 Starbucks Coffee",
        "Street": "n\u00e1m\u011bst\u00ed Svobody 103/5",
        "City": "Brno",
        "Postcode": 60200,
        "category": "fast_food",
        "Verify SMS payment": false,
        "eVoucher option": false,
        "gastro": true,
        "flexi": false,
        "full_addr": "n\u00e1m\u011bst\u00ed Svobody 103/5, Brno",
        "lat": 49.1955382,
        "lon": 16.6084082
    },
    {
        "Name": "208052 Starbucks Coffee Brno Campus",
        "Street": "Netroufalky 770/16",
        "City": "Brno",
        "Postcode": 62500,
        "category": "fast_food",
        "Verify SMS payment": false,
        "eVoucher option": false,
        "gastro": true,
        "flexi": false,
        "full_addr": "Netroufalky 770/16, Brno",
        "lat": 49.1761477,
        "lon": 16.5653471
    },
    {
        "Name": "4pokoje",
        "Street": "Vachova 45/6",
        "City": "Brno",
        "Postcode": 60200,
        "category": "restaurant",
        "Verify SMS payment": false,
        "eVoucher option": false,
        "gastro": true,
        "flexi": false,
        "full_addr": "Vachova 45/6, Brno",
        "lat": 49.1957509,
        "lon": 16.6118223
    },
    {
        "Name": "A - SPORT HOTEL",
        "Street": "Vodova 108",
        "City": "Brno",
        "Postcode": 61200,
        "category": "restaurant",
        "Verify SMS payment": false,
        "eVoucher option": false,
        "gastro": true,
        "flexi": false,
        "full_addr": "Vodova 108, Brno",
        "lat": 49.22768765,
        "lon": 16.5839900551
    },
    {
        "Name": "A Ba\u0161ta",
        "Street": "Nov\u00e9 sady 582/17",
        "City": "Brno",
        "Postcode": 60200,
        "category": "restaurant",
        "Verify SMS payment": false,
        "eVoucher option": false,
        "gastro": true,
        "flexi": false,
        "full_addr": "Nov\u00e9 sady 582/17, Brno",
        "lat": 49.1880499,
        "lon": 16.6072781
    },
    {
        "Name": "Aaron Kebab",
        "Street": "K\u0159enov\u00e1 274/75",
        "City": "Brno",
        "Postcode": 60200,
        "category": "fast_food",
        "Verify SMS payment": false,
        "eVoucher option": false,
        "gastro": true,
        "flexi": false,
        "full_addr": "K\u0159enov\u00e1 274/75, Brno",
        "lat": 49.1914224,
        "lon": 16.6256753
    },
    {
        "Name": "Acapulco Restaurant",
        "Street": "Su\u0161ilova 38/8",
        "City": "Vy\u0161kov",
        "Postcode": 68201,
        "category": "restaurant",
        "Verify SMS payment": false,
        "eVoucher option": false,
        "gastro": true,
        "flexi": false,
        "full_addr": "Su\u0161ilova 38/8, Vy\u0161kov",
        "lat": 49.2788641,
        "lon": 16.9996463
    },
    {
        "Name": "\u00c1\u010dko Restaurace",
        "Street": "Peka\u0159sk\u00e1 246/80",
        "City": "Brno",
        "Postcode": 60200,
        "category": "restaurant",
        "Verify SMS payment": false,
        "eVoucher option": false,
        "gastro": true,
        "flexi": false,
        "full_addr": "Peka\u0159sk\u00e1 246/80, Brno",
        "lat": 49.1918082,
        "lon": 16.5972299
    },
    {
        "Name": "Adams Burgers",
        "Street": "Jamborova 3327/55",
        "City": "Brno",
        "Postcode": 61500,
        "category": "fast_food",
        "Verify SMS payment": false,
        "eVoucher option": false,
        "gastro": true,
        "flexi": false,
        "full_addr": "Jamborova 3327/55, Brno",
        "lat": 49.1965699,
        "lon": 16.649304
    },
    {
        "Name": "Akomi 1",
        "Street": "U d\u00e1lnice 777",
        "City": "Mod\u0159ice",
        "Postcode": 66442,
        "category": "restaurant",
        "Verify SMS payment": false,
        "eVoucher option": false,
        "gastro": true,
        "flexi": false,
        "full_addr": "U d\u00e1lnice 777, Mod\u0159ice",
        "lat": 49.1394586,
        "lon": 16.6315115
    },
    {
        "Name": "Akomi 2",
        "Street": "U d\u00e1lnice 777",
        "City": "Mod\u0159ice",
        "Postcode": 66442,
        "category": "restaurant",
        "Verify SMS payment": false,
        "eVoucher option": false,
        "gastro": true,
        "flexi": false,
        "full_addr": "U d\u00e1lnice 777, Mod\u0159ice",
        "lat": 49.1394586,
        "lon": 16.6315115
    },
    {
        "Name": "Akv\u00e1rna",
        "Street": "Vachova 46/4",
        "City": "Brno",
        "Postcode": 60200,
        "category": "restaurant",
        "Verify SMS payment": false,
        "eVoucher option": false,
        "gastro": true,
        "flexi": false,
        "full_addr": "Vachova 46/4, Brno",
        "lat": 49.1957411,
        "lon": 16.6117506
    },
    {
        "Name": "Alanya Kebap",
        "Street": "P\u00e1lavsk\u00e9 n\u00e1m\u011bst\u00ed 4286/3c",
        "City": "Brno",
        "Postcode": 62800,
        "category": "fast_food",
        "Verify SMS payment": false,
        "eVoucher option": false,
        "gastro": true,
        "flexi": false,
        "full_addr": "P\u00e1lavsk\u00e9 n\u00e1m\u011bst\u00ed 4286/3c, Brno",
        "lat": 49.2063462,
        "lon": 16.6578275
    },
    {
        "Name": "ALBERT",
        "Street": "Halasovo n\u00e1m\u011bst\u00ed 805/5",
        "City": "Brno",
        "Postcode": 63800,
        "category": "supermarket",
        "Verify SMS payment": false,
        "eVoucher option": false,
        "gastro": true,
        "flexi": false,
        "full_addr": "Halasovo n\u00e1m\u011bst\u00ed 805/5, Brno",
        "lat": 49.2240423,
        "lon": 16.6240951
    },
    {
        "Name": "ALBERT",
        "Street": "Dlouh\u00e1 576/1",
        "City": "Brno",
        "Postcode": 62500,
        "category": "supermarket",
        "Verify SMS payment": false,
        "eVoucher option": false,
        "gastro": true,
        "flexi": false,
        "full_addr": "Dlouh\u00e1 576/1, Brno",
        "lat": 49.1699364,
        "lon": 16.5820394
    },
    {
        "Name": "ALBERT",
        "Street": "Masarova 2428/9",
        "City": "Brno",
        "Postcode": 62800,
        "category": "supermarket",
        "Verify SMS payment": false,
        "eVoucher option": false,
        "gastro": true,
        "flexi": false,
        "full_addr": "Masarova 2428/9, Brno",
        "lat": 49.2062134,
        "lon": 16.675669
    },
    {
        "Name": "ALBERT",
        "Street": "E\u010derova 1148/2a",
        "City": "Brno",
        "Postcode": 63500,
        "category": "supermarket",
        "Verify SMS payment": false,
        "eVoucher option": false,
        "gastro": true,
        "flexi": false,
        "full_addr": "E\u010derova 1148/2a, Brno",
        "lat": 49.2189191,
        "lon": 16.5105181
    },
    {
        "Name": "ALBERT",
        "Street": "Mendlovo n\u00e1m\u011bst\u00ed 686/15a",
        "City": "Brno",
        "Postcode": 60300,
        "category": "supermarket",
        "Verify SMS payment": false,
        "eVoucher option": false,
        "gastro": true,
        "flexi": false,
        "full_addr": "Mendlovo n\u00e1m\u011bst\u00ed 686/15a, Brno",
        "lat": 49.1895871,
        "lon": 16.5935539
    },
    {
        "Name": "ALBERT",
        "Street": "Star\u00e1 Osada",
        "City": "Brno - \u017didenice",
        "Postcode": 61500,
        "category": "supermarket",
        "Verify SMS payment": false,
        "eVoucher option": false,
        "gastro": true,
        "flexi": false,
        "full_addr": "Star\u00e1 Osada, Brno - \u017didenice",
        "lat": 49.2029821,
        "lon": 16.6407196
    },
    {
        "Name": "ALBERT",
        "Street": "Masarykovo n\u00e1m\u011bst\u00ed 255/277",
        "City": "Hodon\u00edn",
        "Postcode": 69501,
        "category": "supermarket",
        "Verify SMS payment": false,
        "eVoucher option": false,
        "gastro": true,
        "flexi": false,
        "full_addr": "Masarykovo n\u00e1m\u011bst\u00ed 255/277, Hodon\u00edn",
        "lat": 49.0091665,
        "lon": 17.1218093
    },
    {
        "Name": "ALBERT",
        "Street": "J. Palacha",
        "City": "B\u0159eclav",
        "Postcode": 69002,
        "category": "supermarket",
        "Verify SMS payment": false,
        "eVoucher option": false,
        "gastro": true,
        "flexi": false,
        "full_addr": "J. Palacha, B\u0159eclav",
        "lat": 48.7562626,
        "lon": 16.8886504
    },
    {
        "Name": "ALBERT",
        "Street": "Znojemsk\u00e1 362",
        "City": "Moravsk\u00fd Krumlov",
        "Postcode": 67201,
        "category": "supermarket",
        "Verify SMS payment": false,
        "eVoucher option": false,
        "gastro": true,
        "flexi": false,
        "full_addr": "Znojemsk\u00e1 362, Moravsk\u00fd Krumlov",
        "lat": 49.0368218,
        "lon": 16.3101576
    },
    {
        "Name": "ALBERT",
        "Street": "n\u00e1m. 1. kv\u011btna",
        "City": "Ku\u0159im",
        "Postcode": 66434,
        "category": "supermarket",
        "Verify SMS payment": false,
        "eVoucher option": false,
        "gastro": true,
        "flexi": false,
        "full_addr": "n\u00e1m. 1. kv\u011btna, Ku\u0159im",
        "lat": 49.2986672,
        "lon": 16.5314597159
    },
    {
        "Name": "ALBERT",
        "Street": "N\u00e1dra\u017en\u00ed 1156/9",
        "City": "\u0160lapanice",
        "Postcode": 66451,
        "category": "supermarket",
        "Verify SMS payment": false,
        "eVoucher option": false,
        "gastro": true,
        "flexi": false,
        "full_addr": "N\u00e1dra\u017en\u00ed 1156/9, \u0160lapanice",
        "lat": 49.1657729,
        "lon": 16.7267505
    },
    {
        "Name": "ALBERT",
        "Street": "\u0158\u00ed\u010dansk\u00e1 1387/30",
        "City": "Brno",
        "Postcode": 63500,
        "category": "supermarket",
        "Verify SMS payment": false,
        "eVoucher option": false,
        "gastro": true,
        "flexi": false,
        "full_addr": "\u0158\u00ed\u010dansk\u00e1 1387/30, Brno",
        "lat": 49.2192137,
        "lon": 16.4977337
    },
    {
        "Name": "ALBERT",
        "Street": "Moravsk\u00e9 n\u00e1m\u011bst\u00ed 754/13",
        "City": "Brno",
        "Postcode": 60200,
        "category": "supermarket",
        "Verify SMS payment": false,
        "eVoucher option": false,
        "gastro": true,
        "flexi": false,
        "full_addr": "Moravsk\u00e9 n\u00e1m\u011bst\u00ed 754/13, Brno",
        "lat": 49.1999519,
        "lon": 16.6060205
    },
    {
        "Name": "ALBERT - Brno Letmo",
        "Street": "N\u00e1dra\u017en\u00ed 681/2",
        "City": "Brno",
        "Postcode": 60200,
        "category": "supermarket",
        "Verify SMS payment": false,
        "eVoucher option": false,
        "gastro": true,
        "flexi": false,
        "full_addr": "N\u00e1dra\u017en\u00ed 681/2, Brno",
        "lat": 49.1917566,
        "lon": 16.6124888
    },
    {
        "Name": "ALBERT Adamov",
        "Street": "N\u00e1dra\u017en\u00ed 42",
        "City": "Adamov",
        "Postcode": 67904,
        "category": "supermarket",
        "Verify SMS payment": false,
        "eVoucher option": false,
        "gastro": true,
        "flexi": false,
        "full_addr": "N\u00e1dra\u017en\u00ed 42, Adamov",
        "lat": 49.3005512,
        "lon": 16.6517677697
    },
    {
        "Name": "ALBERT Blansko Ro\u017emit\u00e1lova",
        "Street": "Ro\u017emit\u00e1lova 5/7",
        "City": "Blansko",
        "Postcode": 67801,
        "category": "supermarket",
        "Verify SMS payment": false,
        "eVoucher option": false,
        "gastro": true,
        "flexi": false,
        "full_addr": "Ro\u017emit\u00e1lova 5/7, Blansko",
        "lat": 49.3618565,
        "lon": 16.643144
    },
    {
        "Name": "ALBERT Boskovice",
        "Street": "Komensk\u00e9ho",
        "City": "Boskovice",
        "Postcode": 68001,
        "category": "supermarket",
        "Verify SMS payment": false,
        "eVoucher option": false,
        "gastro": true,
        "flexi": false,
        "full_addr": "Komensk\u00e9ho, Boskovice",
        "lat": 49.4892719,
        "lon": 16.6562213
    },
    {
        "Name": "ALBERT Brno 28. dubna",
        "Street": "n\u00e1m\u011bst\u00ed 28. dubna 1069/2",
        "City": "Brno",
        "Postcode": 63500,
        "category": "supermarket",
        "Verify SMS payment": false,
        "eVoucher option": false,
        "gastro": true,
        "flexi": false,
        "full_addr": "n\u00e1m\u011bst\u00ed 28. dubna 1069/2, Brno",
        "lat": 49.225454,
        "lon": 16.5305405
    },
    {
        "Name": "ALBERT Brno \u010cern\u00e1 Pole Merhautova",
        "Street": "Merhautova 214/1065",
        "City": "Brno - \u010cern\u00e1 pole",
        "Postcode": 61300,
        "category": "supermarket",
        "Verify SMS payment": false,
        "eVoucher option": false,
        "gastro": true,
        "flexi": false,
        "full_addr": "Merhautova 214/1065, Brno - \u010cern\u00e1 pole",
        "lat": 49.2161655,
        "lon": 16.6281735
    },
    {
        "Name": "ALBERT Brno \u010cernovice",
        "Street": "Cornovova 2",
        "City": "Brno",
        "Postcode": 61800,
        "category": "supermarket",
        "Verify SMS payment": false,
        "eVoucher option": false,
        "gastro": true,
        "flexi": false,
        "full_addr": "Cornovova 2, Brno",
        "lat": 49.1865937,
        "lon": 16.6419633
    },
    {
        "Name": "ALBERT Brno Kohoutovice",
        "Street": "Libu\u0161ina t\u0159\u00edda 918/17a",
        "City": "Brno",
        "Postcode": 62300,
        "category": "supermarket",
        "Verify SMS payment": false,
        "eVoucher option": false,
        "gastro": true,
        "flexi": false,
        "full_addr": "Libu\u0161ina t\u0159\u00edda 918/17a, Brno",
        "lat": 49.1942352,
        "lon": 16.5399377
    },
    {
        "Name": "ALBERT Brno Kosmova",
        "Street": "Kosmova 259/1",
        "City": "Brno",
        "Postcode": 61200,
        "category": "supermarket",
        "Verify SMS payment": false,
        "eVoucher option": false,
        "gastro": true,
        "flexi": false,
        "full_addr": "Kosmova 259/1, Brno",
        "lat": 49.2281887,
        "lon": 16.5926568
    },
    {
        "Name": "ALBERT Brno Nov\u00fd L\u00edskovec",
        "Street": "Petra K\u0159ivky 1a",
        "City": "Brno",
        "Postcode": 63400,
        "category": "supermarket",
        "Verify SMS payment": false,
        "eVoucher option": false,
        "gastro": true,
        "flexi": false,
        "full_addr": "Petra K\u0159ivky 1a, Brno",
        "lat": 49.1761756,
        "lon": 16.559432
    },
    {
        "Name": "ALBERT Brno Rozkv\u011bt",
        "Street": "n\u00e1m. Svobody 85/16",
        "City": "Brno",
        "Postcode": 60200,
        "category": "supermarket",
        "Verify SMS payment": false,
        "eVoucher option": false,
        "gastro": true,
        "flexi": false,
        "full_addr": "n\u00e1m. Svobody 85/16, Brno",
        "lat": 49.1942518,
        "lon": 16.6085699
    },
    {
        "Name": "ALBERT Brno Sever",
        "Street": "Novol\u00ed\u0161e\u0148sk\u00e1 2805/15",
        "City": "Brno",
        "Postcode": 62800,
        "category": "supermarket",
        "Verify SMS payment": false,
        "eVoucher option": false,
        "gastro": true,
        "flexi": false,
        "full_addr": "Novol\u00ed\u0161e\u0148sk\u00e1 2805/15, Brno",
        "lat": 49.2087667,
        "lon": 16.6872557
    },
    {
        "Name": "ALBERT Brno Veve\u0159\u00ed",
        "Street": "Veve\u0159\u00ed 287/40",
        "City": "Brno",
        "Postcode": 60200,
        "category": "supermarket",
        "Verify SMS payment": false,
        "eVoucher option": false,
        "gastro": true,
        "flexi": false,
        "full_addr": "Veve\u0159\u00ed 287/40, Brno",
        "lat": 49.201971,
        "lon": 16.5990475
    },
    {
        "Name": "ALBERT Brno Vinohrady",
        "Street": "P\u00e1lavsk\u00e9 n\u00e1m\u011bst\u00ed 4387/14",
        "City": "Brno",
        "Postcode": 62800,
        "category": "supermarket",
        "Verify SMS payment": false,
        "eVoucher option": false,
        "gastro": true,
        "flexi": false,
        "full_addr": "P\u00e1lavsk\u00e9 n\u00e1m\u011bst\u00ed 4387/14, Brno",
        "lat": 49.2057787,
        "lon": 16.6597409
    },
    {
        "Name": "ALBERT Brno Vondr\u00e1kova",
        "Street": "Vondr\u00e1kova 13a/825",
        "City": "Brno",
        "Postcode": 63500,
        "category": "supermarket",
        "Verify SMS payment": false,
        "eVoucher option": false,
        "gastro": true,
        "flexi": false,
        "full_addr": "Vondr\u00e1kova 13a/825, Brno",
        "lat": 49.2215686,
        "lon": 16.5284322
    },
    {
        "Name": "ALBERT \u010cSAD",
        "Street": "N\u00e1dra\u017en\u00ed 2318/4",
        "City": "Blansko",
        "Postcode": 67801,
        "category": "supermarket",
        "Verify SMS payment": false,
        "eVoucher option": false,
        "gastro": true,
        "flexi": false,
        "full_addr": "N\u00e1dra\u017en\u00ed 2318/4, Blansko",
        "lat": 49.3532303,
        "lon": 16.6498582687
    },
    {
        "Name": "ALBERT Hypermarket",
        "Street": "U Jandovky 2",
        "City": "Vy\u0161kov",
        "Postcode": 68201,
        "category": "supermarket",
        "Verify SMS payment": false,
        "eVoucher option": false,
        "gastro": true,
        "flexi": false,
        "full_addr": "U Jandovky 2, Vy\u0161kov",
        "lat": 49.2745046,
        "lon": 16.9893756
    },
    {
        "Name": "ALBERT Hypermarket",
        "Street": "V\u00edde\u0148sk\u00e1 69",
        "City": "Znojmo",
        "Postcode": 66902,
        "category": "supermarket",
        "Verify SMS payment": false,
        "eVoucher option": false,
        "gastro": true,
        "flexi": false,
        "full_addr": "V\u00edde\u0148sk\u00e1 69, Znojmo",
        "lat": 48.8457968,
        "lon": 16.0595569
    },
    {
        "Name": "ALBERT Hypermarket",
        "Street": "Hrani\u010dn\u00ed ul. 1257",
        "City": "B\u0159eclav",
        "Postcode": 69141,
        "category": "supermarket",
        "Verify SMS payment": false,
        "eVoucher option": false,
        "gastro": true,
        "flexi": false,
        "full_addr": "Hrani\u010dn\u00ed ul. 1257, B\u0159eclav",
        "lat": 48.7439989,
        "lon": 16.8697634622
    },
    {
        "Name": "ALBERT Hypermarket",
        "Street": "Velkomoravsk\u00e1 18/1652",
        "City": "Hodon\u00edn",
        "Postcode": 69501,
        "category": "supermarket",
        "Verify SMS payment": false,
        "eVoucher option": false,
        "gastro": true,
        "flexi": false,
        "full_addr": "Velkomoravsk\u00e1 18/1652, Hodon\u00edn",
        "lat": 48.8514555,
        "lon": 17.1221547262
    },
    {
        "Name": "ALBERT Hypermarket",
        "Street": "U d\u00e1lnice 744",
        "City": "Mod\u0159ice",
        "Postcode": 66442,
        "category": "supermarket",
        "Verify SMS payment": false,
        "eVoucher option": false,
        "gastro": true,
        "flexi": false,
        "full_addr": "U d\u00e1lnice 744, Mod\u0159ice",
        "lat": 49.1351817,
        "lon": 16.63241465
    },
    {
        "Name": "ALBERT hypermarket",
        "Street": "Ve Va\u0148kovce 462/1",
        "City": "Brno",
        "Postcode": 60200,
        "category": "supermarket",
        "Verify SMS payment": false,
        "eVoucher option": false,
        "gastro": true,
        "flexi": false,
        "full_addr": "Ve Va\u0148kovce 462/1, Brno",
        "lat": 49.1888279,
        "lon": 16.6139449
    },
    {
        "Name": "ALBERT hypermarket",
        "Street": "V\u00edde\u0148sk\u00e1 815/89a",
        "City": "Brno",
        "Postcode": 63900,
        "category": "supermarket",
        "Verify SMS payment": false,
        "eVoucher option": false,
        "gastro": true,
        "flexi": false,
        "full_addr": "V\u00edde\u0148sk\u00e1 815/89a, Brno",
        "lat": 49.1763713,
        "lon": 16.5965459
    },
    {
        "Name": "ALBERT hypermarket Brno Cejl",
        "Street": "Tkalcovsk\u00e1 869/1",
        "City": "Brno",
        "Postcode": 60200,
        "category": "supermarket",
        "Verify SMS payment": false,
        "eVoucher option": false,
        "gastro": true,
        "flexi": false,
        "full_addr": "Tkalcovsk\u00e1 869/1, Brno",
        "lat": 49.2001766,
        "lon": 16.6281586
    },
    {
        "Name": "ALBERT hypermarket Znojmo Brn\u011bnsk\u00e1",
        "Street": "Brn\u011bnsk\u00e1 2937/21",
        "City": "Znojmo",
        "Postcode": 66902,
        "category": "supermarket",
        "Verify SMS payment": false,
        "eVoucher option": false,
        "gastro": true,
        "flexi": false,
        "full_addr": "Brn\u011bnsk\u00e1 2937/21, Znojmo",
        "lat": 48.846169,
        "lon": 16.0660093
    },
    {
        "Name": "ALBERT Kr\u00e1lovo Pole",
        "Street": "Hrn\u010d\u00ed\u0159sk\u00e1 573/6",
        "City": "Brno",
        "Postcode": 60200,
        "category": "supermarket",
        "Verify SMS payment": false,
        "eVoucher option": false,
        "gastro": true,
        "flexi": false,
        "full_addr": "Hrn\u010d\u00ed\u0159sk\u00e1 573/6, Brno",
        "lat": 49.210527,
        "lon": 16.6010032
    },
    {
        "Name": "ALBERT Letovice",
        "Street": "\u010ceskobratrsk\u00e1 2/150",
        "City": "Letovice",
        "Postcode": 67961,
        "category": "supermarket",
        "Verify SMS payment": false,
        "eVoucher option": false,
        "gastro": true,
        "flexi": false,
        "full_addr": "\u010ceskobratrsk\u00e1 2/150, Letovice",
        "lat": 49.5477818,
        "lon": 16.5751854
    },
    {
        "Name": "ALBERT Slatina",
        "Street": "Jihomoravsk\u00e9 n\u00e1m\u011bst\u00ed 1098/1",
        "City": "Brno",
        "Postcode": 62700,
        "category": "supermarket",
        "Verify SMS payment": false,
        "eVoucher option": false,
        "gastro": true,
        "flexi": false,
        "full_addr": "Jihomoravsk\u00e9 n\u00e1m\u011bst\u00ed 1098/1, Brno",
        "lat": 49.1787328,
        "lon": 16.6847545
    },
    {
        "Name": "ALBERT St. L\u00edskovec Kursk\u00e1",
        "Street": "Kursk\u00e1 9/625",
        "City": "Brno",
        "Postcode": 62500,
        "category": "supermarket",
        "Verify SMS payment": false,
        "eVoucher option": false,
        "gastro": true,
        "flexi": false,
        "full_addr": "Kursk\u00e1 9/625, Brno",
        "lat": 49.1687706,
        "lon": 16.5551921
    },
    {
        "Name": "ALBERT St. L\u00edskovec U Po\u0161ty",
        "Street": "U po\u0161ty 401/12",
        "City": "Brno",
        "Postcode": 62500,
        "category": "supermarket",
        "Verify SMS payment": false,
        "eVoucher option": false,
        "gastro": true,
        "flexi": false,
        "full_addr": "U po\u0161ty 401/12, Brno",
        "lat": 49.1678986,
        "lon": 16.5656927
    },
    {
        "Name": "ALBERT Ti\u0161nov",
        "Street": "N\u00e1dra\u017en\u00ed 1917",
        "City": "Ti\u0161nov",
        "Postcode": 66601,
        "category": "supermarket",
        "Verify SMS payment": false,
        "eVoucher option": false,
        "gastro": true,
        "flexi": false,
        "full_addr": "N\u00e1dra\u017en\u00ed 1917, Ti\u0161nov",
        "lat": 49.3475785,
        "lon": 16.4192938
    },
    {
        "Name": "ALBERT Vy\u0161kov",
        "Street": "Na Hrani\u010dk\u00e1ch 589/34",
        "City": "Vy\u0161kov",
        "Postcode": 68201,
        "category": "supermarket",
        "Verify SMS payment": false,
        "eVoucher option": false,
        "gastro": true,
        "flexi": false,
        "full_addr": "Na Hrani\u010dk\u00e1ch 589/34, Vy\u0161kov",
        "lat": 49.2797578,
        "lon": 16.9877962
    },
    {
        "Name": "Alimentari Italia - CTPark Mod\u0159ice",
        "Street": "Evropsk\u00e1 873",
        "City": "Mod\u0159ice",
        "Postcode": 66442,
        "category": "restaurant",
        "Verify SMS payment": false,
        "eVoucher option": false,
        "gastro": true,
        "flexi": false,
        "full_addr": "Evropsk\u00e1 873, Mod\u0159ice",
        "lat": 49.1126444,
        "lon": 16.6040303
    },
    {
        "Name": "Amande restaurant, Hotel Amande",
        "Street": "Husova 8",
        "City": "Hustope\u010de",
        "Postcode": 69301,
        "category": "restaurant",
        "Verify SMS payment": false,
        "eVoucher option": false,
        "gastro": true,
        "flexi": false,
        "full_addr": "Husova 8, Hustope\u010de",
        "lat": 48.9415741,
        "lon": 16.7359641
    },
    {
        "Name": "Amici Pizza & Burgers  Brno Bystc",
        "Street": "Teyschlova 1350/38a",
        "City": "Brno",
        "Postcode": 63500,
        "category": "fast_food_delivery",
        "Verify SMS payment": false,
        "eVoucher option": false,
        "gastro": true,
        "flexi": false,
        "full_addr": "Teyschlova 1350/38a, Brno",
        "lat": 49.216622,
        "lon": 16.5013279
    },
    {
        "Name": "Amici Pizza & Burgers  Ivan\u010dice",
        "Street": "Josefa V\u00e1vry 1509/12",
        "City": "Ivan\u010dice",
        "Postcode": 66491,
        "category": "fast_food_delivery",
        "Verify SMS payment": false,
        "eVoucher option": false,
        "gastro": true,
        "flexi": false,
        "full_addr": "Josefa V\u00e1vry 1509/12, Ivan\u010dice",
        "lat": 49.1033053,
        "lon": 16.3785545
    },
    {
        "Name": "Amici Pizza & Burgers  Lip\u016fvka",
        "Street": "Lip\u016fvka 331",
        "City": "Lip\u016fvka",
        "Postcode": 67922,
        "category": "fast_food_delivery",
        "Verify SMS payment": false,
        "eVoucher option": false,
        "gastro": true,
        "flexi": false,
        "full_addr": "Lip\u016fvka 331, Lip\u016fvka",
        "lat": 49.3476053,
        "lon": 16.5585159379
    },
    {
        "Name": "Amici Pizza & Burgers Brno Bohunice",
        "Street": "Uzbeck\u00e1 564/22",
        "City": "Brno",
        "Postcode": 62500,
        "category": "fast_food_delivery",
        "Verify SMS payment": false,
        "eVoucher option": false,
        "gastro": true,
        "flexi": false,
        "full_addr": "Uzbeck\u00e1 564/22, Brno",
        "lat": 49.1726581,
        "lon": 16.5819
    },
    {
        "Name": "Amici Pizza & Burgers Brno L\u00ed\u0161e\u0148",
        "Street": "Bedna\u0159\u00edkova 2893/1a",
        "City": "Brno",
        "Postcode": 62800,
        "category": "fast_food_delivery",
        "Verify SMS payment": false,
        "eVoucher option": false,
        "gastro": true,
        "flexi": false,
        "full_addr": "Bedna\u0159\u00edkova 2893/1a, Brno",
        "lat": 49.2090371,
        "lon": 16.6870826
    },
    {
        "Name": "Amici Pizza & Burgers Brno P\u0159\u00edz\u0159enice",
        "Street": "B\u0159eclavsk\u00e1 50/23",
        "City": "Brno",
        "Postcode": 61900,
        "category": "fast_food_delivery",
        "Verify SMS payment": false,
        "eVoucher option": false,
        "gastro": true,
        "flexi": false,
        "full_addr": "B\u0159eclavsk\u00e1 50/23, Brno",
        "lat": 49.1446528,
        "lon": 16.6195729
    },
    {
        "Name": "Amici Pizza & Burgers Brno Zvona\u0159ka",
        "Street": "Zvona\u0159ka 512/2",
        "City": "Brno",
        "Postcode": 60200,
        "category": "fast_food_delivery",
        "Verify SMS payment": false,
        "eVoucher option": false,
        "gastro": true,
        "flexi": false,
        "full_addr": "Zvona\u0159ka 512/2, Brno",
        "lat": 49.1856738,
        "lon": 16.6177529
    },
    {
        "Name": "ANNAPURNA",
        "Street": "Josefsk\u00e1 427/14",
        "City": "Brno",
        "Postcode": 60200,
        "category": "restaurant",
        "Verify SMS payment": false,
        "eVoucher option": false,
        "gastro": true,
        "flexi": false,
        "full_addr": "Josefsk\u00e1 427/14, Brno",
        "lat": 49.192117,
        "lon": 16.612009
    },
    {
        "Name": "Antalya Kebap",
        "Street": "\u0160tef\u00e1nikova 95/24",
        "City": "Brno",
        "Postcode": 60200,
        "category": "fast_food",
        "Verify SMS payment": false,
        "eVoucher option": false,
        "gastro": true,
        "flexi": false,
        "full_addr": "\u0160tef\u00e1nikova 95/24, Brno",
        "lat": 49.209866,
        "lon": 16.6033523
    },
    {
        "Name": "Aquarium Relax",
        "Street": "Pavlovsk\u00e1 527/40",
        "City": "Mikulov",
        "Postcode": 69201,
        "category": "restaurant",
        "Verify SMS payment": false,
        "eVoucher option": false,
        "gastro": true,
        "flexi": false,
        "full_addr": "Pavlovsk\u00e1 527/40, Mikulov",
        "lat": 48.8103451,
        "lon": 16.6421438
    },
    {
        "Name": "Arcadia Caf\u00e9 bar",
        "Street": "J. Palacha 122/6",
        "City": "B\u0159eclav",
        "Postcode": 69001,
        "category": "restaurant",
        "Verify SMS payment": false,
        "eVoucher option": false,
        "gastro": true,
        "flexi": false,
        "full_addr": "J. Palacha 122/6, B\u0159eclav",
        "lat": 48.7573724,
        "lon": 16.8864026
    },
    {
        "Name": "Armen Fast Food",
        "Street": "Cimburkova 593/4",
        "City": "Brno",
        "Postcode": 61200,
        "category": "fast_food",
        "Verify SMS payment": false,
        "eVoucher option": false,
        "gastro": true,
        "flexi": false,
        "full_addr": "Cimburkova 593/4, Brno",
        "lat": 49.2169216,
        "lon": 16.6084876
    },
    {
        "Name": "ASIAN cuisine",
        "Street": "Dob\u0161ick\u00e1 3929/4",
        "City": "Znojmo",
        "Postcode": 66902,
        "category": "restaurant",
        "Verify SMS payment": false,
        "eVoucher option": false,
        "gastro": true,
        "flexi": false,
        "full_addr": "Dob\u0161ick\u00e1 3929/4, Znojmo",
        "lat": 48.853905,
        "lon": 16.067953
    },
    {
        "Name": "Asijsk\u00e9 bistro Orient",
        "Street": "Dornych 404/4",
        "City": "Brno",
        "Postcode": 60200,
        "category": "fast_food",
        "Verify SMS payment": false,
        "eVoucher option": false,
        "gastro": true,
        "flexi": false,
        "full_addr": "Dornych 404/4, Brno",
        "lat": 49.1894391,
        "lon": 16.6128004
    },
    {
        "Name": "Atelier cocktail bar & bistro",
        "Street": "Kobli\u017en\u00e1 71/2",
        "City": "Brno",
        "Postcode": 60200,
        "category": "restaurant",
        "Verify SMS payment": false,
        "eVoucher option": false,
        "gastro": true,
        "flexi": false,
        "full_addr": "Kobli\u017en\u00e1 71/2, Brno",
        "lat": 49.1952444,
        "lon": 16.6090382
    },
    {
        "Name": "AUO",
        "Street": "Tu\u0159anka 856/98b",
        "City": "Brno",
        "Postcode": 62700,
        "category": "restaurant",
        "Verify SMS payment": false,
        "eVoucher option": false,
        "gastro": true,
        "flexi": false,
        "full_addr": "Tu\u0159anka 856/98b, Brno",
        "lat": 49.166072,
        "lon": 16.6743591
    },
    {
        "Name": "Automat Delikomat 005805",
        "Street": "U vle\u010dky 843",
        "City": "Mod\u0159ice",
        "Postcode": 66442,
        "category": "vending_machine",
        "Verify SMS payment": false,
        "eVoucher option": false,
        "gastro": true,
        "flexi": false,
        "full_addr": "U vle\u010dky 843, Mod\u0159ice",
        "lat": 49.1232181,
        "lon": 16.6078493
    },
    {
        "Name": "Automat Delikomat 006324",
        "Street": "U vle\u010dky 843",
        "City": "Mod\u0159ice",
        "Postcode": 66442,
        "category": "vending_machine",
        "Verify SMS payment": false,
        "eVoucher option": false,
        "gastro": true,
        "flexi": false,
        "full_addr": "U vle\u010dky 843, Mod\u0159ice",
        "lat": 49.1232181,
        "lon": 16.6078493
    },
    {
        "Name": "Automat Delikomat 006325",
        "Street": "U vle\u010dky 843",
        "City": "Mod\u0159ice",
        "Postcode": 66442,
        "category": "vending_machine",
        "Verify SMS payment": false,
        "eVoucher option": false,
        "gastro": true,
        "flexi": false,
        "full_addr": "U vle\u010dky 843, Mod\u0159ice",
        "lat": 49.1232181,
        "lon": 16.6078493
    },
    {
        "Name": "Automat Delikomat 006326",
        "Street": "U vle\u010dky 843",
        "City": "Mod\u0159ice",
        "Postcode": 66442,
        "category": "vending_machine",
        "Verify SMS payment": false,
        "eVoucher option": false,
        "gastro": true,
        "flexi": false,
        "full_addr": "U vle\u010dky 843, Mod\u0159ice",
        "lat": 49.1232181,
        "lon": 16.6078493
    },
    {
        "Name": "Automat Delikomat 006327",
        "Street": "U vle\u010dky 843",
        "City": "Mod\u0159ice",
        "Postcode": 66442,
        "category": "vending_machine",
        "Verify SMS payment": false,
        "eVoucher option": false,
        "gastro": true,
        "flexi": false,
        "full_addr": "U vle\u010dky 843, Mod\u0159ice",
        "lat": 49.1232181,
        "lon": 16.6078493
    },
    {
        "Name": "Automat Delikomat 006328",
        "Street": "U vle\u010dky 843",
        "City": "Mod\u0159ice",
        "Postcode": 66442,
        "category": "vending_machine",
        "Verify SMS payment": false,
        "eVoucher option": false,
        "gastro": true,
        "flexi": false,
        "full_addr": "U vle\u010dky 843, Mod\u0159ice",
        "lat": 49.1232181,
        "lon": 16.6078493
    },
    {
        "Name": "Automat Delikomat 006329",
        "Street": "U vle\u010dky 843",
        "City": "Mod\u0159ice",
        "Postcode": 66442,
        "category": "vending_machine",
        "Verify SMS payment": false,
        "eVoucher option": false,
        "gastro": true,
        "flexi": false,
        "full_addr": "U vle\u010dky 843, Mod\u0159ice",
        "lat": 49.1232181,
        "lon": 16.6078493
    },
    {
        "Name": "Automat Delikomat 006330",
        "Street": "U vle\u010dky 843",
        "City": "Mod\u0159ice",
        "Postcode": 66442,
        "category": "vending_machine",
        "Verify SMS payment": false,
        "eVoucher option": false,
        "gastro": true,
        "flexi": false,
        "full_addr": "U vle\u010dky 843, Mod\u0159ice",
        "lat": 49.1232181,
        "lon": 16.6078493
    },
    {
        "Name": "Automat Delikomat 006331",
        "Street": "U vle\u010dky 843",
        "City": "Mod\u0159ice",
        "Postcode": 66442,
        "category": "vending_machine",
        "Verify SMS payment": false,
        "eVoucher option": false,
        "gastro": true,
        "flexi": false,
        "full_addr": "U vle\u010dky 843, Mod\u0159ice",
        "lat": 49.1232181,
        "lon": 16.6078493
    },
    {
        "Name": "Automat Delikomat 006332",
        "Street": "U vle\u010dky 843",
        "City": "Mod\u0159ice",
        "Postcode": 66442,
        "category": "vending_machine",
        "Verify SMS payment": false,
        "eVoucher option": false,
        "gastro": true,
        "flexi": false,
        "full_addr": "U vle\u010dky 843, Mod\u0159ice",
        "lat": 49.1232181,
        "lon": 16.6078493
    },
    {
        "Name": "Automat Delikomat 006333",
        "Street": "U vle\u010dky 843",
        "City": "Mod\u0159ice",
        "Postcode": 66442,
        "category": "vending_machine",
        "Verify SMS payment": false,
        "eVoucher option": false,
        "gastro": true,
        "flexi": false,
        "full_addr": "U vle\u010dky 843, Mod\u0159ice",
        "lat": 49.1232181,
        "lon": 16.6078493
    },
    {
        "Name": "Automat Delikomat 006334",
        "Street": "U vle\u010dky 843",
        "City": "Mod\u0159ice",
        "Postcode": 66442,
        "category": "vending_machine",
        "Verify SMS payment": false,
        "eVoucher option": false,
        "gastro": true,
        "flexi": false,
        "full_addr": "U vle\u010dky 843, Mod\u0159ice",
        "lat": 49.1232181,
        "lon": 16.6078493
    },
    {
        "Name": "Automat Delikomat 006335",
        "Street": "U vle\u010dky 843",
        "City": "Mod\u0159ice",
        "Postcode": 66442,
        "category": "vending_machine",
        "Verify SMS payment": false,
        "eVoucher option": false,
        "gastro": true,
        "flexi": false,
        "full_addr": "U vle\u010dky 843, Mod\u0159ice",
        "lat": 49.1232181,
        "lon": 16.6078493
    },
    {
        "Name": "Automat Delikomat 006336",
        "Street": "U vle\u010dky 843",
        "City": "Mod\u0159ice",
        "Postcode": 66442,
        "category": "vending_machine",
        "Verify SMS payment": false,
        "eVoucher option": false,
        "gastro": true,
        "flexi": false,
        "full_addr": "U vle\u010dky 843, Mod\u0159ice",
        "lat": 49.1232181,
        "lon": 16.6078493
    },
    {
        "Name": "Automat Delikomat 006337",
        "Street": "U vle\u010dky 843",
        "City": "Mod\u0159ice",
        "Postcode": 66442,
        "category": "vending_machine",
        "Verify SMS payment": false,
        "eVoucher option": false,
        "gastro": true,
        "flexi": false,
        "full_addr": "U vle\u010dky 843, Mod\u0159ice",
        "lat": 49.1232181,
        "lon": 16.6078493
    },
    {
        "Name": "Automat Delikomat 006338",
        "Street": "U vle\u010dky 843",
        "City": "Mod\u0159ice",
        "Postcode": 66442,
        "category": "vending_machine",
        "Verify SMS payment": false,
        "eVoucher option": false,
        "gastro": true,
        "flexi": false,
        "full_addr": "U vle\u010dky 843, Mod\u0159ice",
        "lat": 49.1232181,
        "lon": 16.6078493
    },
    {
        "Name": "Automat Delikomat 006339",
        "Street": "U vle\u010dky 843",
        "City": "Mod\u0159ice",
        "Postcode": 66442,
        "category": "vending_machine",
        "Verify SMS payment": false,
        "eVoucher option": false,
        "gastro": true,
        "flexi": false,
        "full_addr": "U vle\u010dky 843, Mod\u0159ice",
        "lat": 49.1232181,
        "lon": 16.6078493
    },
    {
        "Name": "Automat Delikomat 006340",
        "Street": "U vle\u010dky 843",
        "City": "Mod\u0159ice",
        "Postcode": 66442,
        "category": "vending_machine",
        "Verify SMS payment": false,
        "eVoucher option": false,
        "gastro": true,
        "flexi": false,
        "full_addr": "U vle\u010dky 843, Mod\u0159ice",
        "lat": 49.1232181,
        "lon": 16.6078493
    },
    {
        "Name": "Automat Delikomat 006341",
        "Street": "U vle\u010dky 843",
        "City": "Mod\u0159ice",
        "Postcode": 66442,
        "category": "vending_machine",
        "Verify SMS payment": false,
        "eVoucher option": false,
        "gastro": true,
        "flexi": false,
        "full_addr": "U vle\u010dky 843, Mod\u0159ice",
        "lat": 49.1232181,
        "lon": 16.6078493
    },
    {
        "Name": "Automat Delikomat 006342",
        "Street": "U vle\u010dky 843",
        "City": "Mod\u0159ice",
        "Postcode": 66442,
        "category": "vending_machine",
        "Verify SMS payment": false,
        "eVoucher option": false,
        "gastro": true,
        "flexi": false,
        "full_addr": "U vle\u010dky 843, Mod\u0159ice",
        "lat": 49.1232181,
        "lon": 16.6078493
    },
    {
        "Name": "Automat Delikomat 006343",
        "Street": "U vle\u010dky 843",
        "City": "Mod\u0159ice",
        "Postcode": 66442,
        "category": "vending_machine",
        "Verify SMS payment": false,
        "eVoucher option": false,
        "gastro": true,
        "flexi": false,
        "full_addr": "U vle\u010dky 843, Mod\u0159ice",
        "lat": 49.1232181,
        "lon": 16.6078493
    },
    {
        "Name": "Automat Delikomat 006344",
        "Street": "U vle\u010dky 843",
        "City": "Mod\u0159ice",
        "Postcode": 66442,
        "category": "vending_machine",
        "Verify SMS payment": false,
        "eVoucher option": false,
        "gastro": true,
        "flexi": false,
        "full_addr": "U vle\u010dky 843, Mod\u0159ice",
        "lat": 49.1232181,
        "lon": 16.6078493
    },
    {
        "Name": "Automat Delikomat 006345",
        "Street": "U vle\u010dky 843",
        "City": "Mod\u0159ice",
        "Postcode": 66442,
        "category": "vending_machine",
        "Verify SMS payment": false,
        "eVoucher option": false,
        "gastro": true,
        "flexi": false,
        "full_addr": "U vle\u010dky 843, Mod\u0159ice",
        "lat": 49.1232181,
        "lon": 16.6078493
    },
    {
        "Name": "Automat Delikomat 006346",
        "Street": "U vle\u010dky 843",
        "City": "Mod\u0159ice",
        "Postcode": 66442,
        "category": "vending_machine",
        "Verify SMS payment": false,
        "eVoucher option": false,
        "gastro": true,
        "flexi": false,
        "full_addr": "U vle\u010dky 843, Mod\u0159ice",
        "lat": 49.1232181,
        "lon": 16.6078493
    },
    {
        "Name": "Automat Delikomat 006347",
        "Street": "U vle\u010dky 843",
        "City": "Mod\u0159ice",
        "Postcode": 66442,
        "category": "vending_machine",
        "Verify SMS payment": false,
        "eVoucher option": false,
        "gastro": true,
        "flexi": false,
        "full_addr": "U vle\u010dky 843, Mod\u0159ice",
        "lat": 49.1232181,
        "lon": 16.6078493
    },
    {
        "Name": "Automat Delikomat 006348",
        "Street": "U vle\u010dky 843",
        "City": "Mod\u0159ice",
        "Postcode": 66442,
        "category": "vending_machine",
        "Verify SMS payment": false,
        "eVoucher option": false,
        "gastro": true,
        "flexi": false,
        "full_addr": "U vle\u010dky 843, Mod\u0159ice",
        "lat": 49.1232181,
        "lon": 16.6078493
    },
    {
        "Name": "Automat Delikomat 006349",
        "Street": "U vle\u010dky 843",
        "City": "Mod\u0159ice",
        "Postcode": 66442,
        "category": "vending_machine",
        "Verify SMS payment": false,
        "eVoucher option": false,
        "gastro": true,
        "flexi": false,
        "full_addr": "U vle\u010dky 843, Mod\u0159ice",
        "lat": 49.1232181,
        "lon": 16.6078493
    },
    {
        "Name": "Automat Delikomat 006350",
        "Street": "U vle\u010dky 843",
        "City": "Mod\u0159ice",
        "Postcode": 66442,
        "category": "vending_machine",
        "Verify SMS payment": false,
        "eVoucher option": false,
        "gastro": true,
        "flexi": false,
        "full_addr": "U vle\u010dky 843, Mod\u0159ice",
        "lat": 49.1232181,
        "lon": 16.6078493
    },
    {
        "Name": "Automat Delikomat 006351",
        "Street": "U vle\u010dky 843",
        "City": "Mod\u0159ice",
        "Postcode": 66442,
        "category": "vending_machine",
        "Verify SMS payment": false,
        "eVoucher option": false,
        "gastro": true,
        "flexi": false,
        "full_addr": "U vle\u010dky 843, Mod\u0159ice",
        "lat": 49.1232181,
        "lon": 16.6078493
    },
    {
        "Name": "Automat Delikomat 006352",
        "Street": "U vle\u010dky 843",
        "City": "Mod\u0159ice",
        "Postcode": 66442,
        "category": "vending_machine",
        "Verify SMS payment": false,
        "eVoucher option": false,
        "gastro": true,
        "flexi": false,
        "full_addr": "U vle\u010dky 843, Mod\u0159ice",
        "lat": 49.1232181,
        "lon": 16.6078493
    },
    {
        "Name": "Automat Delikomat 006353",
        "Street": "U vle\u010dky 843",
        "City": "Mod\u0159ice",
        "Postcode": 66442,
        "category": "vending_machine",
        "Verify SMS payment": false,
        "eVoucher option": false,
        "gastro": true,
        "flexi": false,
        "full_addr": "U vle\u010dky 843, Mod\u0159ice",
        "lat": 49.1232181,
        "lon": 16.6078493
    },
    {
        "Name": "Automat Delikomat 006354",
        "Street": "U vle\u010dky 843",
        "City": "Mod\u0159ice",
        "Postcode": 66442,
        "category": "vending_machine",
        "Verify SMS payment": false,
        "eVoucher option": false,
        "gastro": true,
        "flexi": false,
        "full_addr": "U vle\u010dky 843, Mod\u0159ice",
        "lat": 49.1232181,
        "lon": 16.6078493
    },
    {
        "Name": "Automat Delikomat 006355",
        "Street": "U vle\u010dky 843",
        "City": "Mod\u0159ice",
        "Postcode": 66442,
        "category": "vending_machine",
        "Verify SMS payment": false,
        "eVoucher option": false,
        "gastro": true,
        "flexi": false,
        "full_addr": "U vle\u010dky 843, Mod\u0159ice",
        "lat": 49.1232181,
        "lon": 16.6078493
    },
    {
        "Name": "Automat Delikomat 006356",
        "Street": "U vle\u010dky 843",
        "City": "Mod\u0159ice",
        "Postcode": 66442,
        "category": "vending_machine",
        "Verify SMS payment": false,
        "eVoucher option": false,
        "gastro": true,
        "flexi": false,
        "full_addr": "U vle\u010dky 843, Mod\u0159ice",
        "lat": 49.1232181,
        "lon": 16.6078493
    },
    {
        "Name": "Automat Delikomat 006357",
        "Street": "U vle\u010dky 843",
        "City": "Mod\u0159ice",
        "Postcode": 66442,
        "category": "vending_machine",
        "Verify SMS payment": false,
        "eVoucher option": false,
        "gastro": true,
        "flexi": false,
        "full_addr": "U vle\u010dky 843, Mod\u0159ice",
        "lat": 49.1232181,
        "lon": 16.6078493
    },
    {
        "Name": "Automat Delikomat 006358",
        "Street": "U vle\u010dky 843",
        "City": "Mod\u0159ice",
        "Postcode": 66442,
        "category": "vending_machine",
        "Verify SMS payment": false,
        "eVoucher option": false,
        "gastro": true,
        "flexi": false,
        "full_addr": "U vle\u010dky 843, Mod\u0159ice",
        "lat": 49.1232181,
        "lon": 16.6078493
    },
    {
        "Name": "Automat Delikomat 006359",
        "Street": "U vle\u010dky 843",
        "City": "Mod\u0159ice",
        "Postcode": 66442,
        "category": "vending_machine",
        "Verify SMS payment": false,
        "eVoucher option": false,
        "gastro": true,
        "flexi": false,
        "full_addr": "U vle\u010dky 843, Mod\u0159ice",
        "lat": 49.1232181,
        "lon": 16.6078493
    },
    {
        "Name": "Automat Delikomat 006360",
        "Street": "U vle\u010dky 843",
        "City": "Mod\u0159ice",
        "Postcode": 66442,
        "category": "vending_machine",
        "Verify SMS payment": false,
        "eVoucher option": false,
        "gastro": true,
        "flexi": false,
        "full_addr": "U vle\u010dky 843, Mod\u0159ice",
        "lat": 49.1232181,
        "lon": 16.6078493
    },
    {
        "Name": "Automat Delikomat 006361",
        "Street": "U vle\u010dky 843",
        "City": "Mod\u0159ice",
        "Postcode": 66442,
        "category": "vending_machine",
        "Verify SMS payment": false,
        "eVoucher option": false,
        "gastro": true,
        "flexi": false,
        "full_addr": "U vle\u010dky 843, Mod\u0159ice",
        "lat": 49.1232181,
        "lon": 16.6078493
    },
    {
        "Name": "Automat Delikomat 006362",
        "Street": "U vle\u010dky 843",
        "City": "Mod\u0159ice",
        "Postcode": 66442,
        "category": "vending_machine",
        "Verify SMS payment": false,
        "eVoucher option": false,
        "gastro": true,
        "flexi": false,
        "full_addr": "U vle\u010dky 843, Mod\u0159ice",
        "lat": 49.1232181,
        "lon": 16.6078493
    },
    {
        "Name": "Automat Delikomat 006363",
        "Street": "U vle\u010dky 843",
        "City": "Mod\u0159ice",
        "Postcode": 66442,
        "category": "vending_machine",
        "Verify SMS payment": false,
        "eVoucher option": false,
        "gastro": true,
        "flexi": false,
        "full_addr": "U vle\u010dky 843, Mod\u0159ice",
        "lat": 49.1232181,
        "lon": 16.6078493
    },
    {
        "Name": "Automat Delikomat 006364",
        "Street": "U vle\u010dky 843",
        "City": "Mod\u0159ice",
        "Postcode": 66442,
        "category": "vending_machine",
        "Verify SMS payment": false,
        "eVoucher option": false,
        "gastro": true,
        "flexi": false,
        "full_addr": "U vle\u010dky 843, Mod\u0159ice",
        "lat": 49.1232181,
        "lon": 16.6078493
    },
    {
        "Name": "Automat Delikomat 006365",
        "Street": "U vle\u010dky 843",
        "City": "Mod\u0159ice",
        "Postcode": 66442,
        "category": "vending_machine",
        "Verify SMS payment": false,
        "eVoucher option": false,
        "gastro": true,
        "flexi": false,
        "full_addr": "U vle\u010dky 843, Mod\u0159ice",
        "lat": 49.1232181,
        "lon": 16.6078493
    },
    {
        "Name": "Automat Delikomat 006366",
        "Street": "U vle\u010dky 843",
        "City": "Mod\u0159ice",
        "Postcode": 66442,
        "category": "vending_machine",
        "Verify SMS payment": false,
        "eVoucher option": false,
        "gastro": true,
        "flexi": false,
        "full_addr": "U vle\u010dky 843, Mod\u0159ice",
        "lat": 49.1232181,
        "lon": 16.6078493
    },
    {
        "Name": "Automat Delikomat 006367",
        "Street": "U vle\u010dky 843",
        "City": "Mod\u0159ice",
        "Postcode": 66442,
        "category": "vending_machine",
        "Verify SMS payment": false,
        "eVoucher option": false,
        "gastro": true,
        "flexi": false,
        "full_addr": "U vle\u010dky 843, Mod\u0159ice",
        "lat": 49.1232181,
        "lon": 16.6078493
    },
    {
        "Name": "Automat Delikomat 006368",
        "Street": "U vle\u010dky 843",
        "City": "Mod\u0159ice",
        "Postcode": 66442,
        "category": "vending_machine",
        "Verify SMS payment": false,
        "eVoucher option": false,
        "gastro": true,
        "flexi": false,
        "full_addr": "U vle\u010dky 843, Mod\u0159ice",
        "lat": 49.1232181,
        "lon": 16.6078493
    },
    {
        "Name": "Automat Delikomat 006369",
        "Street": "U vle\u010dky 843",
        "City": "Mod\u0159ice",
        "Postcode": 66442,
        "category": "vending_machine",
        "Verify SMS payment": false,
        "eVoucher option": false,
        "gastro": true,
        "flexi": false,
        "full_addr": "U vle\u010dky 843, Mod\u0159ice",
        "lat": 49.1232181,
        "lon": 16.6078493
    },
    {
        "Name": "Automat Delikomat 006370",
        "Street": "U vle\u010dky 843",
        "City": "Mod\u0159ice",
        "Postcode": 66442,
        "category": "vending_machine",
        "Verify SMS payment": false,
        "eVoucher option": false,
        "gastro": true,
        "flexi": false,
        "full_addr": "U vle\u010dky 843, Mod\u0159ice",
        "lat": 49.1232181,
        "lon": 16.6078493
    },
    {
        "Name": "Automat Delikomat 006371",
        "Street": "U vle\u010dky 843",
        "City": "Mod\u0159ice",
        "Postcode": 66442,
        "category": "vending_machine",
        "Verify SMS payment": false,
        "eVoucher option": false,
        "gastro": true,
        "flexi": false,
        "full_addr": "U vle\u010dky 843, Mod\u0159ice",
        "lat": 49.1232181,
        "lon": 16.6078493
    },
    {
        "Name": "Automat Delikomat 006372",
        "Street": "U vle\u010dky 843",
        "City": "Mod\u0159ice",
        "Postcode": 66442,
        "category": "vending_machine",
        "Verify SMS payment": false,
        "eVoucher option": false,
        "gastro": true,
        "flexi": false,
        "full_addr": "U vle\u010dky 843, Mod\u0159ice",
        "lat": 49.1232181,
        "lon": 16.6078493
    },
    {
        "Name": "Automat Delikomat 006373",
        "Street": "U vle\u010dky 843",
        "City": "Mod\u0159ice",
        "Postcode": 66442,
        "category": "vending_machine",
        "Verify SMS payment": false,
        "eVoucher option": false,
        "gastro": true,
        "flexi": false,
        "full_addr": "U vle\u010dky 843, Mod\u0159ice",
        "lat": 49.1232181,
        "lon": 16.6078493
    },
    {
        "Name": "Automat Delikomat 006374",
        "Street": "U vle\u010dky 843",
        "City": "Mod\u0159ice",
        "Postcode": 66442,
        "category": "vending_machine",
        "Verify SMS payment": false,
        "eVoucher option": false,
        "gastro": true,
        "flexi": false,
        "full_addr": "U vle\u010dky 843, Mod\u0159ice",
        "lat": 49.1232181,
        "lon": 16.6078493
    },
    {
        "Name": "Automat Delikomat 006375",
        "Street": "U vle\u010dky 843",
        "City": "Mod\u0159ice",
        "Postcode": 66442,
        "category": "vending_machine",
        "Verify SMS payment": false,
        "eVoucher option": false,
        "gastro": true,
        "flexi": false,
        "full_addr": "U vle\u010dky 843, Mod\u0159ice",
        "lat": 49.1232181,
        "lon": 16.6078493
    },
    {
        "Name": "Automat Delikomat 006376",
        "Street": "U vle\u010dky 843",
        "City": "Mod\u0159ice",
        "Postcode": 66442,
        "category": "vending_machine",
        "Verify SMS payment": false,
        "eVoucher option": false,
        "gastro": true,
        "flexi": false,
        "full_addr": "U vle\u010dky 843, Mod\u0159ice",
        "lat": 49.1232181,
        "lon": 16.6078493
    },
    {
        "Name": "Automat Delikomat 006377",
        "Street": "U vle\u010dky 843",
        "City": "Mod\u0159ice",
        "Postcode": 66442,
        "category": "vending_machine",
        "Verify SMS payment": false,
        "eVoucher option": false,
        "gastro": true,
        "flexi": false,
        "full_addr": "U vle\u010dky 843, Mod\u0159ice",
        "lat": 49.1232181,
        "lon": 16.6078493
    },
    {
        "Name": "Automat Delikomat 006378",
        "Street": "U vle\u010dky 843",
        "City": "Mod\u0159ice",
        "Postcode": 66442,
        "category": "vending_machine",
        "Verify SMS payment": false,
        "eVoucher option": false,
        "gastro": true,
        "flexi": false,
        "full_addr": "U vle\u010dky 843, Mod\u0159ice",
        "lat": 49.1232181,
        "lon": 16.6078493
    },
    {
        "Name": "Automat Delikomat 006379",
        "Street": "U vle\u010dky 843",
        "City": "Mod\u0159ice",
        "Postcode": 66442,
        "category": "vending_machine",
        "Verify SMS payment": false,
        "eVoucher option": false,
        "gastro": true,
        "flexi": false,
        "full_addr": "U vle\u010dky 843, Mod\u0159ice",
        "lat": 49.1232181,
        "lon": 16.6078493
    },
    {
        "Name": "Automat Delikomat 006380",
        "Street": "U vle\u010dky 843",
        "City": "Mod\u0159ice",
        "Postcode": 66442,
        "category": "vending_machine",
        "Verify SMS payment": false,
        "eVoucher option": false,
        "gastro": true,
        "flexi": false,
        "full_addr": "U vle\u010dky 843, Mod\u0159ice",
        "lat": 49.1232181,
        "lon": 16.6078493
    },
    {
        "Name": "Automat Delikomat 006381",
        "Street": "U vle\u010dky 843",
        "City": "Mod\u0159ice",
        "Postcode": 66442,
        "category": "vending_machine",
        "Verify SMS payment": false,
        "eVoucher option": false,
        "gastro": true,
        "flexi": false,
        "full_addr": "U vle\u010dky 843, Mod\u0159ice",
        "lat": 49.1232181,
        "lon": 16.6078493
    },
    {
        "Name": "Automat Delikomat 006382",
        "Street": "U vle\u010dky 843",
        "City": "Mod\u0159ice",
        "Postcode": 66442,
        "category": "vending_machine",
        "Verify SMS payment": false,
        "eVoucher option": false,
        "gastro": true,
        "flexi": false,
        "full_addr": "U vle\u010dky 843, Mod\u0159ice",
        "lat": 49.1232181,
        "lon": 16.6078493
    },
    {
        "Name": "Automat Delikomat 006383",
        "Street": "U vle\u010dky 843",
        "City": "Mod\u0159ice",
        "Postcode": 66442,
        "category": "vending_machine",
        "Verify SMS payment": false,
        "eVoucher option": false,
        "gastro": true,
        "flexi": false,
        "full_addr": "U vle\u010dky 843, Mod\u0159ice",
        "lat": 49.1232181,
        "lon": 16.6078493
    },
    {
        "Name": "Automat Delikomat 006384",
        "Street": "U vle\u010dky 843",
        "City": "Mod\u0159ice",
        "Postcode": 66442,
        "category": "vending_machine",
        "Verify SMS payment": false,
        "eVoucher option": false,
        "gastro": true,
        "flexi": false,
        "full_addr": "U vle\u010dky 843, Mod\u0159ice",
        "lat": 49.1232181,
        "lon": 16.6078493
    },
    {
        "Name": "Automat Delikomat 006385",
        "Street": "U vle\u010dky 843",
        "City": "Mod\u0159ice",
        "Postcode": 66442,
        "category": "vending_machine",
        "Verify SMS payment": false,
        "eVoucher option": false,
        "gastro": true,
        "flexi": false,
        "full_addr": "U vle\u010dky 843, Mod\u0159ice",
        "lat": 49.1232181,
        "lon": 16.6078493
    },
    {
        "Name": "Automat Delikomat 006386",
        "Street": "U vle\u010dky 843",
        "City": "Mod\u0159ice",
        "Postcode": 66442,
        "category": "vending_machine",
        "Verify SMS payment": false,
        "eVoucher option": false,
        "gastro": true,
        "flexi": false,
        "full_addr": "U vle\u010dky 843, Mod\u0159ice",
        "lat": 49.1232181,
        "lon": 16.6078493
    },
    {
        "Name": "Automat Delikomat 006387",
        "Street": "U vle\u010dky 843",
        "City": "Mod\u0159ice",
        "Postcode": 66442,
        "category": "vending_machine",
        "Verify SMS payment": false,
        "eVoucher option": false,
        "gastro": true,
        "flexi": false,
        "full_addr": "U vle\u010dky 843, Mod\u0159ice",
        "lat": 49.1232181,
        "lon": 16.6078493
    },
    {
        "Name": "Automat Delikomat 006388",
        "Street": "U vle\u010dky 843",
        "City": "Mod\u0159ice",
        "Postcode": 66442,
        "category": "vending_machine",
        "Verify SMS payment": false,
        "eVoucher option": false,
        "gastro": true,
        "flexi": false,
        "full_addr": "U vle\u010dky 843, Mod\u0159ice",
        "lat": 49.1232181,
        "lon": 16.6078493
    },
    {
        "Name": "Automat Delikomat 006389",
        "Street": "U vle\u010dky 843",
        "City": "Mod\u0159ice",
        "Postcode": 66442,
        "category": "vending_machine",
        "Verify SMS payment": false,
        "eVoucher option": false,
        "gastro": true,
        "flexi": false,
        "full_addr": "U vle\u010dky 843, Mod\u0159ice",
        "lat": 49.1232181,
        "lon": 16.6078493
    },
    {
        "Name": "Automat Delikomat 006390",
        "Street": "U vle\u010dky 843",
        "City": "Mod\u0159ice",
        "Postcode": 66442,
        "category": "vending_machine",
        "Verify SMS payment": false,
        "eVoucher option": false,
        "gastro": true,
        "flexi": false,
        "full_addr": "U vle\u010dky 843, Mod\u0159ice",
        "lat": 49.1232181,
        "lon": 16.6078493
    },
    {
        "Name": "Automat Delikomat 006391",
        "Street": "U vle\u010dky 843",
        "City": "Mod\u0159ice",
        "Postcode": 66442,
        "category": "vending_machine",
        "Verify SMS payment": false,
        "eVoucher option": false,
        "gastro": true,
        "flexi": false,
        "full_addr": "U vle\u010dky 843, Mod\u0159ice",
        "lat": 49.1232181,
        "lon": 16.6078493
    },
    {
        "Name": "Automat Delikomat 006392",
        "Street": "U vle\u010dky 843",
        "City": "Mod\u0159ice",
        "Postcode": 66442,
        "category": "vending_machine",
        "Verify SMS payment": false,
        "eVoucher option": false,
        "gastro": true,
        "flexi": false,
        "full_addr": "U vle\u010dky 843, Mod\u0159ice",
        "lat": 49.1232181,
        "lon": 16.6078493
    },
    {
        "Name": "Automat Delikomat 006393",
        "Street": "U vle\u010dky 843",
        "City": "Mod\u0159ice",
        "Postcode": 66442,
        "category": "vending_machine",
        "Verify SMS payment": false,
        "eVoucher option": false,
        "gastro": true,
        "flexi": false,
        "full_addr": "U vle\u010dky 843, Mod\u0159ice",
        "lat": 49.1232181,
        "lon": 16.6078493
    },
    {
        "Name": "Automat Delikomat 006394",
        "Street": "U vle\u010dky 843",
        "City": "Mod\u0159ice",
        "Postcode": 66442,
        "category": "vending_machine",
        "Verify SMS payment": false,
        "eVoucher option": false,
        "gastro": true,
        "flexi": false,
        "full_addr": "U vle\u010dky 843, Mod\u0159ice",
        "lat": 49.1232181,
        "lon": 16.6078493
    },
    {
        "Name": "Automat Delikomat 006395",
        "Street": "U vle\u010dky 843",
        "City": "Mod\u0159ice",
        "Postcode": 66442,
        "category": "vending_machine",
        "Verify SMS payment": false,
        "eVoucher option": false,
        "gastro": true,
        "flexi": false,
        "full_addr": "U vle\u010dky 843, Mod\u0159ice",
        "lat": 49.1232181,
        "lon": 16.6078493
    },
    {
        "Name": "Automat Delikomat 006396",
        "Street": "U vle\u010dky 843",
        "City": "Mod\u0159ice",
        "Postcode": 66442,
        "category": "vending_machine",
        "Verify SMS payment": false,
        "eVoucher option": false,
        "gastro": true,
        "flexi": false,
        "full_addr": "U vle\u010dky 843, Mod\u0159ice",
        "lat": 49.1232181,
        "lon": 16.6078493
    },
    {
        "Name": "Automat Delikomat 006397",
        "Street": "U vle\u010dky 843",
        "City": "Mod\u0159ice",
        "Postcode": 66442,
        "category": "vending_machine",
        "Verify SMS payment": false,
        "eVoucher option": false,
        "gastro": true,
        "flexi": false,
        "full_addr": "U vle\u010dky 843, Mod\u0159ice",
        "lat": 49.1232181,
        "lon": 16.6078493
    },
    {
        "Name": "Automat Delikomat 006398",
        "Street": "U vle\u010dky 843",
        "City": "Mod\u0159ice",
        "Postcode": 66442,
        "category": "vending_machine",
        "Verify SMS payment": false,
        "eVoucher option": false,
        "gastro": true,
        "flexi": false,
        "full_addr": "U vle\u010dky 843, Mod\u0159ice",
        "lat": 49.1232181,
        "lon": 16.6078493
    },
    {
        "Name": "Automat Delikomat 006399",
        "Street": "U vle\u010dky 843",
        "City": "Mod\u0159ice",
        "Postcode": 66442,
        "category": "vending_machine",
        "Verify SMS payment": false,
        "eVoucher option": false,
        "gastro": true,
        "flexi": false,
        "full_addr": "U vle\u010dky 843, Mod\u0159ice",
        "lat": 49.1232181,
        "lon": 16.6078493
    },
    {
        "Name": "Automat Delikomat 006400",
        "Street": "U vle\u010dky 843",
        "City": "Mod\u0159ice",
        "Postcode": 66442,
        "category": "vending_machine",
        "Verify SMS payment": false,
        "eVoucher option": false,
        "gastro": true,
        "flexi": false,
        "full_addr": "U vle\u010dky 843, Mod\u0159ice",
        "lat": 49.1232181,
        "lon": 16.6078493
    },
    {
        "Name": "Automat Delikomat 006401",
        "Street": "U vle\u010dky 843",
        "City": "Mod\u0159ice",
        "Postcode": 66442,
        "category": "vending_machine",
        "Verify SMS payment": false,
        "eVoucher option": false,
        "gastro": true,
        "flexi": false,
        "full_addr": "U vle\u010dky 843, Mod\u0159ice",
        "lat": 49.1232181,
        "lon": 16.6078493
    },
    {
        "Name": "Automat Delikomat 006402",
        "Street": "U vle\u010dky 843",
        "City": "Mod\u0159ice",
        "Postcode": 66442,
        "category": "vending_machine",
        "Verify SMS payment": false,
        "eVoucher option": false,
        "gastro": true,
        "flexi": false,
        "full_addr": "U vle\u010dky 843, Mod\u0159ice",
        "lat": 49.1232181,
        "lon": 16.6078493
    },
    {
        "Name": "Automat Delikomat 006403",
        "Street": "U vle\u010dky 843",
        "City": "Mod\u0159ice",
        "Postcode": 66442,
        "category": "vending_machine",
        "Verify SMS payment": false,
        "eVoucher option": false,
        "gastro": true,
        "flexi": false,
        "full_addr": "U vle\u010dky 843, Mod\u0159ice",
        "lat": 49.1232181,
        "lon": 16.6078493
    },
    {
        "Name": "Automat Delikomat 006404",
        "Street": "U vle\u010dky 843",
        "City": "Mod\u0159ice",
        "Postcode": 66442,
        "category": "vending_machine",
        "Verify SMS payment": false,
        "eVoucher option": false,
        "gastro": true,
        "flexi": false,
        "full_addr": "U vle\u010dky 843, Mod\u0159ice",
        "lat": 49.1232181,
        "lon": 16.6078493
    },
    {
        "Name": "Automat Delikomat 006405",
        "Street": "U vle\u010dky 843",
        "City": "Mod\u0159ice",
        "Postcode": 66442,
        "category": "vending_machine",
        "Verify SMS payment": false,
        "eVoucher option": false,
        "gastro": true,
        "flexi": false,
        "full_addr": "U vle\u010dky 843, Mod\u0159ice",
        "lat": 49.1232181,
        "lon": 16.6078493
    },
    {
        "Name": "Automat Delikomat 006406",
        "Street": "U vle\u010dky 843",
        "City": "Mod\u0159ice",
        "Postcode": 66442,
        "category": "vending_machine",
        "Verify SMS payment": false,
        "eVoucher option": false,
        "gastro": true,
        "flexi": false,
        "full_addr": "U vle\u010dky 843, Mod\u0159ice",
        "lat": 49.1232181,
        "lon": 16.6078493
    },
    {
        "Name": "Automat Delikomat 006407",
        "Street": "U vle\u010dky 843",
        "City": "Mod\u0159ice",
        "Postcode": 66442,
        "category": "vending_machine",
        "Verify SMS payment": false,
        "eVoucher option": false,
        "gastro": true,
        "flexi": false,
        "full_addr": "U vle\u010dky 843, Mod\u0159ice",
        "lat": 49.1232181,
        "lon": 16.6078493
    },
    {
        "Name": "Automat Delikomat 006408",
        "Street": "U vle\u010dky 843",
        "City": "Mod\u0159ice",
        "Postcode": 66442,
        "category": "vending_machine",
        "Verify SMS payment": false,
        "eVoucher option": false,
        "gastro": true,
        "flexi": false,
        "full_addr": "U vle\u010dky 843, Mod\u0159ice",
        "lat": 49.1232181,
        "lon": 16.6078493
    },
    {
        "Name": "Automat Delikomat 006409",
        "Street": "U vle\u010dky 843",
        "City": "Mod\u0159ice",
        "Postcode": 66442,
        "category": "vending_machine",
        "Verify SMS payment": false,
        "eVoucher option": false,
        "gastro": true,
        "flexi": false,
        "full_addr": "U vle\u010dky 843, Mod\u0159ice",
        "lat": 49.1232181,
        "lon": 16.6078493
    },
    {
        "Name": "Automat Delikomat 006410",
        "Street": "U vle\u010dky 843",
        "City": "Mod\u0159ice",
        "Postcode": 66442,
        "category": "vending_machine",
        "Verify SMS payment": false,
        "eVoucher option": false,
        "gastro": true,
        "flexi": false,
        "full_addr": "U vle\u010dky 843, Mod\u0159ice",
        "lat": 49.1232181,
        "lon": 16.6078493
    },
    {
        "Name": "Automat Delikomat 006411",
        "Street": "U vle\u010dky 843",
        "City": "Mod\u0159ice",
        "Postcode": 66442,
        "category": "vending_machine",
        "Verify SMS payment": false,
        "eVoucher option": false,
        "gastro": true,
        "flexi": false,
        "full_addr": "U vle\u010dky 843, Mod\u0159ice",
        "lat": 49.1232181,
        "lon": 16.6078493
    },
    {
        "Name": "Automat Delikomat 006412",
        "Street": "U vle\u010dky 843",
        "City": "Mod\u0159ice",
        "Postcode": 66442,
        "category": "vending_machine",
        "Verify SMS payment": false,
        "eVoucher option": false,
        "gastro": true,
        "flexi": false,
        "full_addr": "U vle\u010dky 843, Mod\u0159ice",
        "lat": 49.1232181,
        "lon": 16.6078493
    },
    {
        "Name": "Automat Delikomat 006413",
        "Street": "U vle\u010dky 843",
        "City": "Mod\u0159ice",
        "Postcode": 66442,
        "category": "vending_machine",
        "Verify SMS payment": false,
        "eVoucher option": false,
        "gastro": true,
        "flexi": false,
        "full_addr": "U vle\u010dky 843, Mod\u0159ice",
        "lat": 49.1232181,
        "lon": 16.6078493
    },
    {
        "Name": "Automat Delikomat 006414",
        "Street": "U vle\u010dky 843",
        "City": "Mod\u0159ice",
        "Postcode": 66442,
        "category": "vending_machine",
        "Verify SMS payment": false,
        "eVoucher option": false,
        "gastro": true,
        "flexi": false,
        "full_addr": "U vle\u010dky 843, Mod\u0159ice",
        "lat": 49.1232181,
        "lon": 16.6078493
    },
    {
        "Name": "Automat Delikomat 006415",
        "Street": "U vle\u010dky 843",
        "City": "Mod\u0159ice",
        "Postcode": 66442,
        "category": "vending_machine",
        "Verify SMS payment": false,
        "eVoucher option": false,
        "gastro": true,
        "flexi": false,
        "full_addr": "U vle\u010dky 843, Mod\u0159ice",
        "lat": 49.1232181,
        "lon": 16.6078493
    },
    {
        "Name": "Automat Delikomat 006416",
        "Street": "U vle\u010dky 843",
        "City": "Mod\u0159ice",
        "Postcode": 66442,
        "category": "vending_machine",
        "Verify SMS payment": false,
        "eVoucher option": false,
        "gastro": true,
        "flexi": false,
        "full_addr": "U vle\u010dky 843, Mod\u0159ice",
        "lat": 49.1232181,
        "lon": 16.6078493
    },
    {
        "Name": "Automat Delikomat 006417",
        "Street": "U vle\u010dky 843",
        "City": "Mod\u0159ice",
        "Postcode": 66442,
        "category": "vending_machine",
        "Verify SMS payment": false,
        "eVoucher option": false,
        "gastro": true,
        "flexi": false,
        "full_addr": "U vle\u010dky 843, Mod\u0159ice",
        "lat": 49.1232181,
        "lon": 16.6078493
    },
    {
        "Name": "Automat Delikomat 006418",
        "Street": "U vle\u010dky 843",
        "City": "Mod\u0159ice",
        "Postcode": 66442,
        "category": "vending_machine",
        "Verify SMS payment": false,
        "eVoucher option": false,
        "gastro": true,
        "flexi": false,
        "full_addr": "U vle\u010dky 843, Mod\u0159ice",
        "lat": 49.1232181,
        "lon": 16.6078493
    },
    {
        "Name": "Automat Delikomat 006419",
        "Street": "U vle\u010dky 843",
        "City": "Mod\u0159ice",
        "Postcode": 66442,
        "category": "vending_machine",
        "Verify SMS payment": false,
        "eVoucher option": false,
        "gastro": true,
        "flexi": false,
        "full_addr": "U vle\u010dky 843, Mod\u0159ice",
        "lat": 49.1232181,
        "lon": 16.6078493
    },
    {
        "Name": "Automat Delikomat 006420",
        "Street": "U vle\u010dky 843",
        "City": "Mod\u0159ice",
        "Postcode": 66442,
        "category": "vending_machine",
        "Verify SMS payment": false,
        "eVoucher option": false,
        "gastro": true,
        "flexi": false,
        "full_addr": "U vle\u010dky 843, Mod\u0159ice",
        "lat": 49.1232181,
        "lon": 16.6078493
    },
    {
        "Name": "Automat Delikomat 006421",
        "Street": "U vle\u010dky 843",
        "City": "Mod\u0159ice",
        "Postcode": 66442,
        "category": "vending_machine",
        "Verify SMS payment": false,
        "eVoucher option": false,
        "gastro": true,
        "flexi": false,
        "full_addr": "U vle\u010dky 843, Mod\u0159ice",
        "lat": 49.1232181,
        "lon": 16.6078493
    },
    {
        "Name": "Automat Delikomat 006422",
        "Street": "U vle\u010dky 843",
        "City": "Mod\u0159ice",
        "Postcode": 66442,
        "category": "vending_machine",
        "Verify SMS payment": false,
        "eVoucher option": false,
        "gastro": true,
        "flexi": false,
        "full_addr": "U vle\u010dky 843, Mod\u0159ice",
        "lat": 49.1232181,
        "lon": 16.6078493
    },
    {
        "Name": "Automat Delikomat 006423",
        "Street": "U vle\u010dky 843",
        "City": "Mod\u0159ice",
        "Postcode": 66442,
        "category": "vending_machine",
        "Verify SMS payment": false,
        "eVoucher option": false,
        "gastro": true,
        "flexi": false,
        "full_addr": "U vle\u010dky 843, Mod\u0159ice",
        "lat": 49.1232181,
        "lon": 16.6078493
    },
    {
        "Name": "Automat Delikomat 006424",
        "Street": "U vle\u010dky 843",
        "City": "Mod\u0159ice",
        "Postcode": 66442,
        "category": "vending_machine",
        "Verify SMS payment": false,
        "eVoucher option": false,
        "gastro": true,
        "flexi": false,
        "full_addr": "U vle\u010dky 843, Mod\u0159ice",
        "lat": 49.1232181,
        "lon": 16.6078493
    },
    {
        "Name": "Automat Delikomat 006425",
        "Street": "U vle\u010dky 843",
        "City": "Mod\u0159ice",
        "Postcode": 66442,
        "category": "vending_machine",
        "Verify SMS payment": false,
        "eVoucher option": false,
        "gastro": true,
        "flexi": false,
        "full_addr": "U vle\u010dky 843, Mod\u0159ice",
        "lat": 49.1232181,
        "lon": 16.6078493
    },
    {
        "Name": "Automat Delikomat 006426",
        "Street": "U vle\u010dky 843",
        "City": "Mod\u0159ice",
        "Postcode": 66442,
        "category": "vending_machine",
        "Verify SMS payment": false,
        "eVoucher option": false,
        "gastro": true,
        "flexi": false,
        "full_addr": "U vle\u010dky 843, Mod\u0159ice",
        "lat": 49.1232181,
        "lon": 16.6078493
    },
    {
        "Name": "Automat Delikomat 006427",
        "Street": "U vle\u010dky 843",
        "City": "Mod\u0159ice",
        "Postcode": 66442,
        "category": "vending_machine",
        "Verify SMS payment": false,
        "eVoucher option": false,
        "gastro": true,
        "flexi": false,
        "full_addr": "U vle\u010dky 843, Mod\u0159ice",
        "lat": 49.1232181,
        "lon": 16.6078493
    },
    {
        "Name": "Automat Delikomat 006428",
        "Street": "U vle\u010dky 843",
        "City": "Mod\u0159ice",
        "Postcode": 66442,
        "category": "vending_machine",
        "Verify SMS payment": false,
        "eVoucher option": false,
        "gastro": true,
        "flexi": false,
        "full_addr": "U vle\u010dky 843, Mod\u0159ice",
        "lat": 49.1232181,
        "lon": 16.6078493
    },
    {
        "Name": "Automat Delikomat 006429",
        "Street": "U vle\u010dky 843",
        "City": "Mod\u0159ice",
        "Postcode": 66442,
        "category": "vending_machine",
        "Verify SMS payment": false,
        "eVoucher option": false,
        "gastro": true,
        "flexi": false,
        "full_addr": "U vle\u010dky 843, Mod\u0159ice",
        "lat": 49.1232181,
        "lon": 16.6078493
    },
    {
        "Name": "Automat Delikomat 006430",
        "Street": "U vle\u010dky 843",
        "City": "Mod\u0159ice",
        "Postcode": 66442,
        "category": "vending_machine",
        "Verify SMS payment": false,
        "eVoucher option": false,
        "gastro": true,
        "flexi": false,
        "full_addr": "U vle\u010dky 843, Mod\u0159ice",
        "lat": 49.1232181,
        "lon": 16.6078493
    },
    {
        "Name": "Automat Delikomat 006431",
        "Street": "U vle\u010dky 843",
        "City": "Mod\u0159ice",
        "Postcode": 66442,
        "category": "vending_machine",
        "Verify SMS payment": false,
        "eVoucher option": false,
        "gastro": true,
        "flexi": false,
        "full_addr": "U vle\u010dky 843, Mod\u0159ice",
        "lat": 49.1232181,
        "lon": 16.6078493
    },
    {
        "Name": "Automat Delikomat 006432",
        "Street": "U vle\u010dky 843",
        "City": "Mod\u0159ice",
        "Postcode": 66442,
        "category": "vending_machine",
        "Verify SMS payment": false,
        "eVoucher option": false,
        "gastro": true,
        "flexi": false,
        "full_addr": "U vle\u010dky 843, Mod\u0159ice",
        "lat": 49.1232181,
        "lon": 16.6078493
    },
    {
        "Name": "Automat Delikomat 006433",
        "Street": "U vle\u010dky 843",
        "City": "Mod\u0159ice",
        "Postcode": 66442,
        "category": "vending_machine",
        "Verify SMS payment": false,
        "eVoucher option": false,
        "gastro": true,
        "flexi": false,
        "full_addr": "U vle\u010dky 843, Mod\u0159ice",
        "lat": 49.1232181,
        "lon": 16.6078493
    },
    {
        "Name": "Automat Delikomat 006434",
        "Street": "U vle\u010dky 843",
        "City": "Mod\u0159ice",
        "Postcode": 66442,
        "category": "vending_machine",
        "Verify SMS payment": false,
        "eVoucher option": false,
        "gastro": true,
        "flexi": false,
        "full_addr": "U vle\u010dky 843, Mod\u0159ice",
        "lat": 49.1232181,
        "lon": 16.6078493
    },
    {
        "Name": "Automat Delikomat 006435",
        "Street": "U vle\u010dky 843",
        "City": "Mod\u0159ice",
        "Postcode": 66442,
        "category": "vending_machine",
        "Verify SMS payment": false,
        "eVoucher option": false,
        "gastro": true,
        "flexi": false,
        "full_addr": "U vle\u010dky 843, Mod\u0159ice",
        "lat": 49.1232181,
        "lon": 16.6078493
    },
    {
        "Name": "Automat Delikomat 006436",
        "Street": "U vle\u010dky 843",
        "City": "Mod\u0159ice",
        "Postcode": 66442,
        "category": "vending_machine",
        "Verify SMS payment": false,
        "eVoucher option": false,
        "gastro": true,
        "flexi": false,
        "full_addr": "U vle\u010dky 843, Mod\u0159ice",
        "lat": 49.1232181,
        "lon": 16.6078493
    },
    {
        "Name": "Automat Delikomat 006437",
        "Street": "U vle\u010dky 843",
        "City": "Mod\u0159ice",
        "Postcode": 66442,
        "category": "vending_machine",
        "Verify SMS payment": false,
        "eVoucher option": false,
        "gastro": true,
        "flexi": false,
        "full_addr": "U vle\u010dky 843, Mod\u0159ice",
        "lat": 49.1232181,
        "lon": 16.6078493
    },
    {
        "Name": "Automat Delikomat 006438",
        "Street": "U vle\u010dky 843",
        "City": "Mod\u0159ice",
        "Postcode": 66442,
        "category": "vending_machine",
        "Verify SMS payment": false,
        "eVoucher option": false,
        "gastro": true,
        "flexi": false,
        "full_addr": "U vle\u010dky 843, Mod\u0159ice",
        "lat": 49.1232181,
        "lon": 16.6078493
    },
    {
        "Name": "Automat Delikomat 006439",
        "Street": "U vle\u010dky 843",
        "City": "Mod\u0159ice",
        "Postcode": 66442,
        "category": "vending_machine",
        "Verify SMS payment": false,
        "eVoucher option": false,
        "gastro": true,
        "flexi": false,
        "full_addr": "U vle\u010dky 843, Mod\u0159ice",
        "lat": 49.1232181,
        "lon": 16.6078493
    },
    {
        "Name": "Automat Delikomat 006440",
        "Street": "U vle\u010dky 843",
        "City": "Mod\u0159ice",
        "Postcode": 66442,
        "category": "vending_machine",
        "Verify SMS payment": false,
        "eVoucher option": false,
        "gastro": true,
        "flexi": false,
        "full_addr": "U vle\u010dky 843, Mod\u0159ice",
        "lat": 49.1232181,
        "lon": 16.6078493
    },
    {
        "Name": "Automat Delikomat 006441",
        "Street": "U vle\u010dky 843",
        "City": "Mod\u0159ice",
        "Postcode": 66442,
        "category": "vending_machine",
        "Verify SMS payment": false,
        "eVoucher option": false,
        "gastro": true,
        "flexi": false,
        "full_addr": "U vle\u010dky 843, Mod\u0159ice",
        "lat": 49.1232181,
        "lon": 16.6078493
    },
    {
        "Name": "Automat Delikomat 006442",
        "Street": "U vle\u010dky 843",
        "City": "Mod\u0159ice",
        "Postcode": 66442,
        "category": "vending_machine",
        "Verify SMS payment": false,
        "eVoucher option": false,
        "gastro": true,
        "flexi": false,
        "full_addr": "U vle\u010dky 843, Mod\u0159ice",
        "lat": 49.1232181,
        "lon": 16.6078493
    },
    {
        "Name": "Automat Delikomat 006443",
        "Street": "U vle\u010dky 843",
        "City": "Mod\u0159ice",
        "Postcode": 66442,
        "category": "vending_machine",
        "Verify SMS payment": false,
        "eVoucher option": false,
        "gastro": true,
        "flexi": false,
        "full_addr": "U vle\u010dky 843, Mod\u0159ice",
        "lat": 49.1232181,
        "lon": 16.6078493
    },
    {
        "Name": "Automat Delikomat 006444",
        "Street": "U vle\u010dky 843",
        "City": "Mod\u0159ice",
        "Postcode": 66442,
        "category": "vending_machine",
        "Verify SMS payment": false,
        "eVoucher option": false,
        "gastro": true,
        "flexi": false,
        "full_addr": "U vle\u010dky 843, Mod\u0159ice",
        "lat": 49.1232181,
        "lon": 16.6078493
    },
    {
        "Name": "Automat Delikomat 006445",
        "Street": "U vle\u010dky 843",
        "City": "Mod\u0159ice",
        "Postcode": 66442,
        "category": "vending_machine",
        "Verify SMS payment": false,
        "eVoucher option": false,
        "gastro": true,
        "flexi": false,
        "full_addr": "U vle\u010dky 843, Mod\u0159ice",
        "lat": 49.1232181,
        "lon": 16.6078493
    },
    {
        "Name": "Automat Delikomat 006446",
        "Street": "U vle\u010dky 843",
        "City": "Mod\u0159ice",
        "Postcode": 66442,
        "category": "vending_machine",
        "Verify SMS payment": false,
        "eVoucher option": false,
        "gastro": true,
        "flexi": false,
        "full_addr": "U vle\u010dky 843, Mod\u0159ice",
        "lat": 49.1232181,
        "lon": 16.6078493
    },
    {
        "Name": "Automat Delikomat 006447",
        "Street": "U vle\u010dky 843",
        "City": "Mod\u0159ice",
        "Postcode": 66442,
        "category": "vending_machine",
        "Verify SMS payment": false,
        "eVoucher option": false,
        "gastro": true,
        "flexi": false,
        "full_addr": "U vle\u010dky 843, Mod\u0159ice",
        "lat": 49.1232181,
        "lon": 16.6078493
    },
    {
        "Name": "Automat Delikomat 006448",
        "Street": "U vle\u010dky 843",
        "City": "Mod\u0159ice",
        "Postcode": 66442,
        "category": "vending_machine",
        "Verify SMS payment": false,
        "eVoucher option": false,
        "gastro": true,
        "flexi": false,
        "full_addr": "U vle\u010dky 843, Mod\u0159ice",
        "lat": 49.1232181,
        "lon": 16.6078493
    },
    {
        "Name": "Automat Delikomat 006449",
        "Street": "U vle\u010dky 843",
        "City": "Mod\u0159ice",
        "Postcode": 66442,
        "category": "vending_machine",
        "Verify SMS payment": false,
        "eVoucher option": false,
        "gastro": true,
        "flexi": false,
        "full_addr": "U vle\u010dky 843, Mod\u0159ice",
        "lat": 49.1232181,
        "lon": 16.6078493
    },
    {
        "Name": "Automat Delikomat 006450",
        "Street": "U vle\u010dky 843",
        "City": "Mod\u0159ice",
        "Postcode": 66442,
        "category": "vending_machine",
        "Verify SMS payment": false,
        "eVoucher option": false,
        "gastro": true,
        "flexi": false,
        "full_addr": "U vle\u010dky 843, Mod\u0159ice",
        "lat": 49.1232181,
        "lon": 16.6078493
    },
    {
        "Name": "Automat Delikomat 006451",
        "Street": "U vle\u010dky 843",
        "City": "Mod\u0159ice",
        "Postcode": 66442,
        "category": "vending_machine",
        "Verify SMS payment": false,
        "eVoucher option": false,
        "gastro": true,
        "flexi": false,
        "full_addr": "U vle\u010dky 843, Mod\u0159ice",
        "lat": 49.1232181,
        "lon": 16.6078493
    },
    {
        "Name": "Automat Delikomat 006452",
        "Street": "U vle\u010dky 843",
        "City": "Mod\u0159ice",
        "Postcode": 66442,
        "category": "vending_machine",
        "Verify SMS payment": false,
        "eVoucher option": false,
        "gastro": true,
        "flexi": false,
        "full_addr": "U vle\u010dky 843, Mod\u0159ice",
        "lat": 49.1232181,
        "lon": 16.6078493
    },
    {
        "Name": "Automat Delikomat 006453",
        "Street": "U vle\u010dky 843",
        "City": "Mod\u0159ice",
        "Postcode": 66442,
        "category": "vending_machine",
        "Verify SMS payment": false,
        "eVoucher option": false,
        "gastro": true,
        "flexi": false,
        "full_addr": "U vle\u010dky 843, Mod\u0159ice",
        "lat": 49.1232181,
        "lon": 16.6078493
    },
    {
        "Name": "Automat Delikomat 006454",
        "Street": "U vle\u010dky 843",
        "City": "Mod\u0159ice",
        "Postcode": 66442,
        "category": "vending_machine",
        "Verify SMS payment": false,
        "eVoucher option": false,
        "gastro": true,
        "flexi": false,
        "full_addr": "U vle\u010dky 843, Mod\u0159ice",
        "lat": 49.1232181,
        "lon": 16.6078493
    },
    {
        "Name": "Automat Delikomat 006455",
        "Street": "U vle\u010dky 843",
        "City": "Mod\u0159ice",
        "Postcode": 66442,
        "category": "vending_machine",
        "Verify SMS payment": false,
        "eVoucher option": false,
        "gastro": true,
        "flexi": false,
        "full_addr": "U vle\u010dky 843, Mod\u0159ice",
        "lat": 49.1232181,
        "lon": 16.6078493
    },
    {
        "Name": "Automat Delikomat 006456",
        "Street": "U vle\u010dky 843",
        "City": "Mod\u0159ice",
        "Postcode": 66442,
        "category": "vending_machine",
        "Verify SMS payment": false,
        "eVoucher option": false,
        "gastro": true,
        "flexi": false,
        "full_addr": "U vle\u010dky 843, Mod\u0159ice",
        "lat": 49.1232181,
        "lon": 16.6078493
    },
    {
        "Name": "Automat Delikomat 006457",
        "Street": "U vle\u010dky 843",
        "City": "Mod\u0159ice",
        "Postcode": 66442,
        "category": "vending_machine",
        "Verify SMS payment": false,
        "eVoucher option": false,
        "gastro": true,
        "flexi": false,
        "full_addr": "U vle\u010dky 843, Mod\u0159ice",
        "lat": 49.1232181,
        "lon": 16.6078493
    },
    {
        "Name": "Automat Delikomat 006458",
        "Street": "U vle\u010dky 843",
        "City": "Mod\u0159ice",
        "Postcode": 66442,
        "category": "vending_machine",
        "Verify SMS payment": false,
        "eVoucher option": false,
        "gastro": true,
        "flexi": false,
        "full_addr": "U vle\u010dky 843, Mod\u0159ice",
        "lat": 49.1232181,
        "lon": 16.6078493
    },
    {
        "Name": "Automat Delikomat 006459",
        "Street": "U vle\u010dky 843",
        "City": "Mod\u0159ice",
        "Postcode": 66442,
        "category": "vending_machine",
        "Verify SMS payment": false,
        "eVoucher option": false,
        "gastro": true,
        "flexi": false,
        "full_addr": "U vle\u010dky 843, Mod\u0159ice",
        "lat": 49.1232181,
        "lon": 16.6078493
    },
    {
        "Name": "Automat Delikomat 006460",
        "Street": "U vle\u010dky 843",
        "City": "Mod\u0159ice",
        "Postcode": 66442,
        "category": "vending_machine",
        "Verify SMS payment": false,
        "eVoucher option": false,
        "gastro": true,
        "flexi": false,
        "full_addr": "U vle\u010dky 843, Mod\u0159ice",
        "lat": 49.1232181,
        "lon": 16.6078493
    },
    {
        "Name": "Automat Delikomat 006461",
        "Street": "U vle\u010dky 843",
        "City": "Mod\u0159ice",
        "Postcode": 66442,
        "category": "vending_machine",
        "Verify SMS payment": false,
        "eVoucher option": false,
        "gastro": true,
        "flexi": false,
        "full_addr": "U vle\u010dky 843, Mod\u0159ice",
        "lat": 49.1232181,
        "lon": 16.6078493
    },
    {
        "Name": "Automat Delikomat 006462",
        "Street": "U vle\u010dky 843",
        "City": "Mod\u0159ice",
        "Postcode": 66442,
        "category": "vending_machine",
        "Verify SMS payment": false,
        "eVoucher option": false,
        "gastro": true,
        "flexi": false,
        "full_addr": "U vle\u010dky 843, Mod\u0159ice",
        "lat": 49.1232181,
        "lon": 16.6078493
    },
    {
        "Name": "Automat Delikomat 006463",
        "Street": "U vle\u010dky 843",
        "City": "Mod\u0159ice",
        "Postcode": 66442,
        "category": "vending_machine",
        "Verify SMS payment": false,
        "eVoucher option": false,
        "gastro": true,
        "flexi": false,
        "full_addr": "U vle\u010dky 843, Mod\u0159ice",
        "lat": 49.1232181,
        "lon": 16.6078493
    },
    {
        "Name": "Automat Delikomat 006464",
        "Street": "U vle\u010dky 843",
        "City": "Mod\u0159ice",
        "Postcode": 66442,
        "category": "vending_machine",
        "Verify SMS payment": false,
        "eVoucher option": false,
        "gastro": true,
        "flexi": false,
        "full_addr": "U vle\u010dky 843, Mod\u0159ice",
        "lat": 49.1232181,
        "lon": 16.6078493
    },
    {
        "Name": "Automat Delikomat 006465",
        "Street": "U vle\u010dky 843",
        "City": "Mod\u0159ice",
        "Postcode": 66442,
        "category": "vending_machine",
        "Verify SMS payment": false,
        "eVoucher option": false,
        "gastro": true,
        "flexi": false,
        "full_addr": "U vle\u010dky 843, Mod\u0159ice",
        "lat": 49.1232181,
        "lon": 16.6078493
    },
    {
        "Name": "Automat Delikomat 006466",
        "Street": "U vle\u010dky 843",
        "City": "Mod\u0159ice",
        "Postcode": 66442,
        "category": "vending_machine",
        "Verify SMS payment": false,
        "eVoucher option": false,
        "gastro": true,
        "flexi": false,
        "full_addr": "U vle\u010dky 843, Mod\u0159ice",
        "lat": 49.1232181,
        "lon": 16.6078493
    },